field_1,field_1_1,OBJECTID,ID,NAME,ADDRESS,CITY,STATE,ZIP,ZIP4,TELEPHONE,TYPE,STATUS,POPULATION,COUNTY,COUNTYFIPS,COUNTRY,LATITUDE,LONGITUDE,NAICS_CODE,NAICS_DESC,SOURCE,SOURCEDATE,VAL_METHOD,VAL_DATE,WEBSITE,STATE_ID,ALT_NAME,ST_FIPS,OWNER,TTL_STAFF,BEDS,TRAUMA,HELIPAD,Unnamed: 0,counts,score
"285","285","289","1572042","DEWITT HOSPITAL AND NURSING HOME, INC",1641 SOUTH WHITEHEAD DRIVE,DEWITT,AR,"72042",NOT AVAILABLE,(870) 946-3571,CRITICAL ACCESS,OPEN,"25",ARKANSAS,"5001",USA,34.27979487,-91.33823119,"622110",GENERAL MEDICAL AND SURGICAL HOSPITALS,https://www.healthy.arkansas.gov/images/uploads/pdf/hospitals_hfs_.xlsx,2022/01/21,IMAGERY/OTHER,2014/03/12,NOT AVAILABLE,AR4093,NOT AVAILABLE,"5",NON-PROFIT,"-999","25",NOT AVAILABLE,Y,5,5637,6
"286","286","290","971635",ASHLEY COUNTY MEDICAL CENTER,1015 UNITY ROAD,CROSSETT,AR,"71635",NOT AVAILABLE,(870) 364-4111,CRITICAL ACCESS,OPEN,"33",ASHLEY,"5003",USA,33.13845416,-91.93879905,"622110",GENERAL MEDICAL AND SURGICAL HOSPITALS,https://www.healthy.arkansas.gov/images/uploads/pdf/hospitals_hfs_.xlsx,2022/01/21,IMAGERY/OTHER,2014/02/10,http://www.acmconline.org,AR4238,NOT AVAILABLE,"5",NON-PROFIT,"-999","33",LEVEL IV,Y,3,1008,4
"287","287","291","272653",BAXTER REGIONAL MEDICAL CENTER,624 HOSPITAL DRIVE,MOUNTAIN HOME,AR,"72653",NOT AVAILABLE,(870) 508-1000,GENERAL ACUTE CARE,OPEN,"268",BAXTER,"5005",USA,36.34210333,-92.39654421,"622110",GENERAL MEDICAL AND SURGICAL HOSPITALS,https://www.healthy.arkansas.gov/images/uploads/pdf/hospitals_hfs_.xlsx,2022/01/21,IMAGERY/OTHER,2014/03/13,http://www.baxterregional.org,AR3827,NOT AVAILABLE,"5",NON-PROFIT,"-999","268",LEVEL III,Y,2,551,3
"288","288","292","196784324",EVEREST REHABILITATION HOSPITAL NWA,4313 SOUTH PLEASANT CROSSING BOULEVARD,ROGERS,AR,"72758",NOT AVAILABLE,(479) 341-4004,REHABILITATION,OPEN,"36",BENTON,"5007",USA,36.2785567,-94.1461076,"622310","REHABILITATION HOSPITALS (EXCEPT ALCOHOLISM, DRUG ADDICTION)",https://www.healthy.arkansas.gov/images/uploads/pdf/hospitals_hfs_.xlsx,2022/01/21,IMAGERY/OTHER,2022/02/28,NOT AVAILABLE,AR5627,NOT AVAILABLE,"5",NOT AVAILABLE,"-999","36",NOT AVAILABLE,N,5,5637,6
"289","289","293","63072758",MERCY HOSPITAL NORTHWEST ARKANSAS,2710 SOUTH RIFE MEDICAL LANE,ROGERS,AR,"72758","1452",(479) 338-8000,GENERAL ACUTE CARE,OPEN,"275",BENTON,"5007",USA,36.30899285,-94.18297802,"622110",GENERAL MEDICAL AND SURGICAL HOSPITALS,https://www.healthy.arkansas.gov/images/uploads/pdf/hospitals_hfs_.xlsx,2022/01/21,IMAGERY/OTHER,2014/12/02,NOT AVAILABLE,AR4797,NOT AVAILABLE,"5",NOT AVAILABLE,"-999","275",LEVEL III,Y,2,551,3
"290","290","294","400000",NORTHWEST MEDICAL CENTER - BENTONVILLE,3000 MEDICAL CENTER PARKWAY,BENTONVILLE,AR,"72712",NOT AVAILABLE,(479) 553-1000,GENERAL ACUTE CARE,OPEN,"128",BENTON,"5007",USA,36.33990633,-94.1913569,"622110",GENERAL MEDICAL AND SURGICAL HOSPITALS,https://www.healthy.arkansas.gov/images/uploads/pdf/hospitals_hfs_.xlsx,2022/01/21,IMAGERY/OTHER,2014/02/10,http://www.northwesthealth.com/pages/home.aspx,AR4474,NOT AVAILABLE,"5",PROPRIETARY,"-999","128",LEVEL III,Y,2,551,3
"291","291","295","61572736",OZARKS COMMUNITY HOSPITAL OF GRAVETTE,1101 JACKSON STREET SW,GRAVETTE,AR,"72736","9121",(479) 787-5291,GENERAL ACUTE CARE,OPEN,"25",BENTON,"5007",USA,36.40858329,-94.45911011,"622110",GENERAL MEDICAL AND SURGICAL HOSPITALS,https://www.healthy.arkansas.gov/images/uploads/pdf/hospitals_hfs_.xlsx,2022/01/21,IMAGERY/OTHER,2014/11/18,NOT AVAILABLE,AR4517,NOT AVAILABLE,"5",NOT AVAILABLE,"-999","25",NOT AVAILABLE,Y,5,5637,6
"292","292","296","172761",SILOAM SPRINGS REGIONAL HOSPITAL,603 NORTH PROGRESS AVENUE,SILOAM SPRINGS,AR,"72761",NOT AVAILABLE,(479) 215-3000,GENERAL ACUTE CARE,OPEN,"73",BENTON,"5007",USA,36.18978427,-94.50765532,"622110",GENERAL MEDICAL AND SURGICAL HOSPITALS,https://www.healthy.arkansas.gov/images/uploads/pdf/hospitals_hfs_.xlsx,2022/01/21,IMAGERY/OTHER,2014/02/10,NOT AVAILABLE,AR4774,NOT AVAILABLE,"5",PROPRIETARY,"-999","73",LEVEL IV,Y,3,1008,4
"293","293","297","572601",NORTH ARKANSAS REGIONAL MEDICAL CENTER,620 NORTH MAIN STREET,HARRISON,AR,"72601",NOT AVAILABLE,(870) 414-4000,GENERAL ACUTE CARE,OPEN,"174",BOONE,"5009",USA,36.23653136,-93.10913937,"622110",GENERAL MEDICAL AND SURGICAL HOSPITALS,https://www.healthy.arkansas.gov/images/uploads/pdf/hospitals_hfs_.xlsx,2022/01/21,IMAGERY/OTHER,2014/03/12,http://www.narmc.com,AR4480,NOT AVAILABLE,"5",NON-PROFIT,"-999","174",LEVEL III,Y,2,551,3
"294","294","298","671671",BRADLEY COUNTY MEDICAL CENTER,404 SOUTH BRADLEY STREET,WARREN,AR,"71671",NOT AVAILABLE,(870) 226-3731,CRITICAL ACCESS,OPEN,"33",BRADLEY,"5011",USA,33.61036413,-92.05925489,"622110",GENERAL MEDICAL AND SURGICAL HOSPITALS,https://www.healthy.arkansas.gov/images/uploads/pdf/hospitals_hfs_.xlsx,2022/01/21,IMAGERY,2014/02/10,http://www.bradleycountymedicalcenter.com,AR4304,NOT AVAILABLE,"5",NON-PROFIT,"-999","33",NOT AVAILABLE,Y,5,5637,6
"295","295","299","1072632",EUREKA SPRINGS HOSPITAL COMMISSION,24 NORRIS STREET,EUREKA SPRINGS,AR,"72632",NOT AVAILABLE,(479) 253-7400,CRITICAL ACCESS,OPEN,"15",CARROLL,"5015",USA,36.40016379,-93.74423592,"622110",GENERAL MEDICAL AND SURGICAL HOSPITALS,https://www.healthy.arkansas.gov/images/uploads/pdf/hospitals_hfs_.xlsx,2022/01/21,IMAGERY/OTHER,2014/03/12,http://www.eurekaspringshospital.com,AR5657,NOT AVAILABLE,"5",PROPRIETARY,"-999","15",LEVEL IV,Y,3,1008,4
"296","296","300","872616",MERCY HOSPITAL BERRYVILLE,214 CARTER STREET,BERRYVILLE,AR,"72616","4303",(870) 423-3355,CRITICAL ACCESS,OPEN,"25",CARROLL,"5015",USA,36.3590621,-93.55182577,"622110",GENERAL MEDICAL AND SURGICAL HOSPITALS,https://www.healthy.arkansas.gov/images/uploads/pdf/hospitals_hfs_.xlsx,2022/01/21,IMAGERY/OTHER,2014/03/12,http://www.mercy.net/practice/mercy-hospital-berryville,AR4767,NOT AVAILABLE,"5",NON-PROFIT,"-999","25",NOT AVAILABLE,Y,5,5637,6
"297","297","301","196784286",SOUTHEAST REHABILITATION HOSPITAL,905 BORGOGNONI DRIVE,LAKE VILLAGE,AR,"71653",NOT AVAILABLE,(870) 265-4333,REHABILITATION,OPEN,"10",CHICOT,"5017",USA,33.3147629,-91.2903316,"622310","REHABILITATION HOSPITALS (EXCEPT ALCOHOLISM, DRUG ADDICTION)",https://www.healthy.arkansas.gov/images/uploads/pdf/hospitals_hfs_.xlsx,2022/01/21,IMAGERY/OTHER,2022/04/01,NOT AVAILABLE,AR5432,NOT AVAILABLE,"5",NOT AVAILABLE,"-999","10",NOT AVAILABLE,N,5,5637,6
"298","298","302","2271923",BAPTIST HEALTH MEDICAL CENTER - ARKADELPHIA,3050 TWIN RIVERS DRIVE,ARKADELPHIA,AR,"71923",NOT AVAILABLE,(870) 245-2622,CRITICAL ACCESS,OPEN,"25",CLARK,"5019",USA,34.12291357,-93.08882416,"622110",GENERAL MEDICAL AND SURGICAL HOSPITALS,https://www.healthy.arkansas.gov/images/uploads/pdf/hospitals_hfs_.xlsx,2022/01/21,IMAGERY/OTHER,2014/02/10,http://www.baptist-health.com/locations/accesspoint.aspx?accesspointid=187,AR4227,NOT AVAILABLE,"5",NON-PROFIT,"-999","25",LEVEL IV,Y,3,1008,4
"299","299","303","2372454",PIGGOTT COMMUNITY HOSPITAL,1206 GORDON DUCKWORTH DRIVE,PIGGOTT,AR,"72454",NOT AVAILABLE,(870) 598-3881,CRITICAL ACCESS,OPEN,"25",CLAY,"5021",USA,36.39011947,-90.20483796,"622110",GENERAL MEDICAL AND SURGICAL HOSPITALS,https://www.healthy.arkansas.gov/images/uploads/pdf/hospitals_hfs_.xlsx,2022/01/21,IMAGERY,2014/02/10,http://www.piggottcommunityhospital.com,AR4319,NOT AVAILABLE,"5",GOVERNMENT - LOCAL,"-999","25",LEVEL IV,Y,3,1008,4
"300","300","304","1372543",BAPTIST HEALTH MEDICAL CENTER - HEBER SPRINGS,1800 BYPASS ROAD,HEBER SPRINGS,AR,"72543",NOT AVAILABLE,(501) 887-3000,CRITICAL ACCESS,OPEN,"25",CLEBURNE,"5023",USA,35.50450113,-91.9979985,"622110",GENERAL MEDICAL AND SURGICAL HOSPITALS,https://www.healthy.arkansas.gov/images/uploads/pdf/hospitals_hfs_.xlsx,2022/01/21,IMAGERY,2021/05/24,http://www.baptist-health.com/maps-directions/bhmc-heber-springs,AR4436,NOT AVAILABLE,"5",NON-PROFIT,"-999","25",LEVEL IV,Y,3,1008,4
"301","301","305","1871753",MAGNOLIA REGIONAL MEDICAL CENTER,101 HOSPITAL DRIVE,MAGNOLIA,AR,"71753","2415",(870) 235-3000,GENERAL ACUTE CARE,OPEN,"49",COLUMBIA,"5027",USA,33.27419818,-93.23913276,"622110",GENERAL MEDICAL AND SURGICAL HOSPITALS,https://www.healthy.arkansas.gov/images/uploads/pdf/hospitals_hfs_.xlsx,2022/01/21,IMAGERY/OTHER,2014/03/12,http://www.magnoliahospital.org,AR5687,NOT AVAILABLE,"5",GOVERNMENT - LOCAL,"-999","49",LEVEL IV,Y,3,1008,4
"302","302","306","2472110",CHI ST. VINCENT MORRILTON,4 HOSPITAL DRIVE,MORRILTON,AR,"72110","4510",(501) 977-2300,CRITICAL ACCESS,OPEN,"25",CONWAY,"5029",USA,35.16801491,-92.72135132,"622110",GENERAL MEDICAL AND SURGICAL HOSPITALS,https://www.healthy.arkansas.gov/images/uploads/pdf/hospitals_hfs_.xlsx,2022/01/21,IMAGERY/OTHER,2014/02/10,https://www.stvincenthealth.com/morrilton/,AR5260,NOT AVAILABLE,"5",NON-PROFIT,"-999","25",LEVEL IV,Y,3,1008,4
"303","303","307","187672401",ARKANSAS CONTINUED CARE HOSPITAL OF JONESBORO,"3024 RED WOLF BOULEVARD, SUITE 1",JONESBORO,AR,"72401","7415",(870) 819-4040,GENERAL ACUTE CARE,OPEN,"99",CRAIGHEAD,"5031",USA,35.808393,-90.666568,"622110",GENERAL MEDICAL AND SURGICAL HOSPITALS,https://www.healthy.arkansas.gov/images/uploads/pdf/hospitals_hfs_.xlsx,2022/01/21,IMAGERY/OTHER,2020/05/05,https://arkansascontinuedcarehospital.com/,AR5351,NOT AVAILABLE,"5",NOT AVAILABLE,"-999","99",LEVEL IV,Y,3,1008,4
"304","304","308","61272401",ENCOMPASS HEALTH REHABILITATION HOSPITAL OF JONESBORO,1201 FLEMING AVENUE,JONESBORO,AR,"72401","4311",(870) 932-0440,REHABILITATION,OPEN,"80",CRAIGHEAD,"5031",USA,35.8326775,-90.69303591,"622310","REHABILITATION HOSPITALS (EXCEPT ALCOHOLISM, DRUG ADDICTION)",https://www.healthy.arkansas.gov/images/uploads/pdf/hospitals_hfs_.xlsx,2022/01/21,IMAGERY/OTHER,2014/11/18,http://www.encompasshealth.com/jonesbororehab,AR5517,NOT AVAILABLE,"5",NOT AVAILABLE,"-999","80",NOT AVAILABLE,N,5,5637,6
"305","305","309","3300000",NEA BAPTIST MEMORIAL HOSPITAL,4800 EAST JOHNSON AVENUE,JONESBORO,AR,"72405","8413",(870) 936-1000,GENERAL ACUTE CARE,OPEN,"228",CRAIGHEAD,"5031",USA,35.86682937,-90.63651431,"622110",GENERAL MEDICAL AND SURGICAL HOSPITALS,https://www.healthy.arkansas.gov/images/uploads/pdf/hospitals_hfs_.xlsx,2022/01/21,IMAGERY/OTHER,2014/02/10,NOT AVAILABLE,AR5037,NOT AVAILABLE,"5",NON-PROFIT,"-999","228",LEVEL III,Y,2,551,3
"306","306","310","3672401",ST. BERNARDS MEDICAL CENTER,225 EAST WASHINGTON AVENUE,JONESBORO,AR,"72401","3111",(870) 972-4100,GENERAL ACUTE CARE,OPEN,"378",CRAIGHEAD,"5031",USA,35.83649802,-90.70261858,"622110",GENERAL MEDICAL AND SURGICAL HOSPITALS,https://www.healthy.arkansas.gov/images/uploads/pdf/hospitals_hfs_.xlsx,2022/01/21,IMAGERY/OTHER,2014/03/12,http://www.sbrmc.com/,AR5625,NOT AVAILABLE,"5",NON-PROFIT,"-999","378",LEVEL III,Y,2,551,3
"307","307","311","3472401",ST. BERNARDS MEDICAL CENTER,2712 EAST JOHNSON AVENUE,JONESBORO,AR,"72405",NOT AVAILABLE,(870) 932-2800,PSYCHIATRIC,OPEN,"62",CRAIGHEAD,"5031",USA,35.85221482,-90.66978926,"622210",PSYCHIATRIC AND SUBSTANCE ABUSE HOSPITALS,https://www.healthy.arkansas.gov/images/uploads/pdf/hospitals_hfs_.xlsx,2022/01/21,IMAGERY/OTHER,2014/02/10,http://www.sbrmc.com/,AR4645,NOT AVAILABLE,"5",NON-PROFIT,"-999","62",NOT AVAILABLE,N,5,5637,6
"308","308","312","3772956",BAPTIST HEALTH - VAN BUREN,211 CRAWFORD MEMORIAL DRIVE,VAN BUREN,AR,"72956","5322",(479) 474-3401,GENERAL ACUTE CARE,OPEN,"103",CRAWFORD,"5033",USA,35.43540066,-94.33879771,"622110",GENERAL MEDICAL AND SURGICAL HOSPITALS,https://www.healthy.arkansas.gov/images/uploads/pdf/hospitals_hfs_.xlsx,2022/01/21,IMAGERY/OTHER,2014/02/10,http://www.summitmedicalcenter.net,AR5599,NOT AVAILABLE,"5",PROPRIETARY,"-999","103",LEVEL IV,Y,3,1008,4
"309","309","313","185272301","BAPTIST MEMORIAL HOSPITAL - CRITTENDEN, INC",2100 NORTH SEVENTH STREET,WEST MEMPHIS,AR,"72301","2017",(870) 394-7800,GENERAL ACUTE CARE,OPEN,"11",CRITTENDEN,"5035",USA,35.16795985,-90.17783336,"622110",GENERAL MEDICAL AND SURGICAL HOSPITALS,https://www.healthy.arkansas.gov/images/uploads/pdf/hospitals_hfs_.xlsx,2022/01/21,IMAGERY/OTHER,2020/05/05,https://www.baptistonline.org/locations/crittenden,AR5505,NOT AVAILABLE,"5",NOT AVAILABLE,"-999","11",NOT AVAILABLE,Y,5,5637,6
"310","310","314","62572396",CROSSRIDGE COMMUNITY HOSPITAL,310 SOUTH FALLS BOULEVARD,WYNNE,AR,"72396",NOT AVAILABLE,(870) 238-3300,GENERAL ACUTE CARE,OPEN,"25",CROSS,"5037",USA,35.21955792,-90.78664054,"622110",GENERAL MEDICAL AND SURGICAL HOSPITALS,https://www.healthy.arkansas.gov/images/uploads/pdf/hospitals_hfs_.xlsx,2022/01/21,IMAGERY/OTHER,2014/12/02,NOT AVAILABLE,AR4063,NOT AVAILABLE,"5",NOT AVAILABLE,"-999","25",NOT AVAILABLE,Y,5,5637,6
"311","311","315","2571742",DALLAS COUNTY MEDICAL CENTER,201 CLIFTON STREET,FORDYCE,AR,"71742",NOT AVAILABLE,(870) 352-6300,CRITICAL ACCESS,OPEN,"25",DALLAS,"5039",USA,33.81085539,-92.42558764,"622110",GENERAL MEDICAL AND SURGICAL HOSPITALS,https://www.healthy.arkansas.gov/images/uploads/pdf/hospitals_hfs_.xlsx,2022/01/21,IMAGERY/OTHER,2014/03/12,NOT AVAILABLE,AR4114,NOT AVAILABLE,"5",GOVERNMENT - LOCAL,"-999","25",LEVEL IV,Y,3,1008,4
"312","312","316","62671639",DELTA MEMORIAL HOSPITAL,811 HIGHWAY 65 SOUTH,DUMAS,AR,"71639",NOT AVAILABLE,(870) 382-4303,GENERAL ACUTE CARE,OPEN,"25",DESHA,"5041",USA,33.87320167,-91.48036852,"622110",GENERAL MEDICAL AND SURGICAL HOSPITALS,https://www.healthy.arkansas.gov/images/uploads/pdf/hospitals_hfs_.xlsx,2022/01/21,IMAGERY/OTHER,2014/12/02,NOT AVAILABLE,AR4392,NOT AVAILABLE,"5",NOT AVAILABLE,"-999","25",NOT AVAILABLE,Y,5,5637,6
"313","313","317","8971654",MCGEHEE HOSPITAL,900 SOUTH THIRD STREET,MCGEHEE,AR,"71654","2526",(870) 222-5600,CRITICAL ACCESS,OPEN,"25",DESHA,"5041",USA,33.61845532,-91.39227634,"622110",GENERAL MEDICAL AND SURGICAL HOSPITALS,https://www.healthy.arkansas.gov/images/uploads/pdf/hospitals_hfs_.xlsx,2022/01/21,IMAGERY/OTHER,2014/02/10,NOT AVAILABLE,AR4657,NOT AVAILABLE,"5",NON-PROFIT,"-999","25",NOT AVAILABLE,Y,5,5637,6
"314","314","318","169772032",BAPTIST HEALTH MEDICAL CENTER - CONWAY,1555 EXCHANGE AVENUE,CONWAY,AR,"72032","7824",(501) 585-2000,GENERAL ACUTE CARE,OPEN,"111",FAULKNER,"5045",USA,35.05671664,-92.41957062,"622110",GENERAL MEDICAL AND SURGICAL HOSPITALS,https://www.healthy.arkansas.gov/images/uploads/pdf/hospitals_hfs_.xlsx,2022/01/21,IMAGERY/OTHER,2019/05/09,NOT AVAILABLE,AR5248,NOT AVAILABLE,"5",PROPRIETARY,"-999","111",LEVEL III,Y,2,551,3
"315","315","319","192772034",CONWAY BEHAVIORAL HEALTH,2255 STURGIS ROAD,CONWAY,AR,"72034","8334",(501) 205-0011,PSYCHIATRIC,OPEN,"80",FAULKNER,"5045",USA,35.03810928,-92.42399239,"622210",PSYCHIATRIC AND SUBSTANCE ABUSE HOSPITALS,https://www.healthy.arkansas.gov/images/uploads/pdf/hospitals_hfs_.xlsx,2022/01/21,IMAGERY/OTHER,2020/05/05,https://www.conwaybh.com/?utm_source=yext&utm_medium=organic&utm_campaign=listing&utm_term=brand,AR5367,NOT AVAILABLE,"5",NOT AVAILABLE,"-999","80",NOT AVAILABLE,N,5,5637,6
"316","316","320","4472034",CONWAY REGIONAL MEDICAL CENTER,2302 COLLEGE AVENUE,CONWAY,AR,"72034",NOT AVAILABLE,(501) 329-3831,GENERAL ACUTE CARE,OPEN,"150",FAULKNER,"5045",USA,35.08566805,-92.4578836,"622110",GENERAL MEDICAL AND SURGICAL HOSPITALS,https://www.healthy.arkansas.gov/images/uploads/pdf/hospitals_hfs_.xlsx,2022/01/21,IMAGERY,2014/02/10,http://www.conwayregional.org,"2657",NOT AVAILABLE,"5",NON-PROFIT,"-999","150",LEVEL III,Y,2,551,3
"317","317","321","4572034",CONWAY REGIONAL REHABILITATION HOSPITAL,2210 ROBINSON AVENUE,CONWAY,AR,"72034",NOT AVAILABLE,(501) 932-3500,REHABILITATION,OPEN,"26",FAULKNER,"5045",USA,35.08929113,-92.45568605,"622310","REHABILITATION HOSPITALS (EXCEPT ALCOHOLISM, DRUG ADDICTION)",https://www.healthy.arkansas.gov/images/uploads/pdf/hospitals_hfs_.xlsx,2022/01/21,IMAGERY,2013/09/17,NOT AVAILABLE,AR4261,NOT AVAILABLE,"5",PROPRIETARY,"-999","26",NOT AVAILABLE,N,5,5637,6
"318","318","322","62972949",MERCY HOSPITAL OZARK,801 WEST RIVER STREET,OZARK,AR,"72949",NOT AVAILABLE,(479) 667-4138,GENERAL ACUTE CARE,OPEN,"25",FRANKLIN,"5047",USA,35.48582001,-93.83344375,"622110",GENERAL MEDICAL AND SURGICAL HOSPITALS,https://www.healthy.arkansas.gov/images/uploads/pdf/hospitals_hfs_.xlsx,2022/01/21,IMAGERY/OTHER,2014/12/02,NOT AVAILABLE,AR4939,NOT AVAILABLE,"5",NOT AVAILABLE,"-999","25",LEVEL IV,Y,3,1008,4
"319","319","323","1172576",FULTON COUNTY HOSPITAL,679 NORTH MAIN STREET,SALEM,AR,"72576",NOT AVAILABLE,(870) 895-2691,CRITICAL ACCESS,OPEN,"25",FULTON,"5049",USA,36.38290088,-91.81030795,"622110",GENERAL MEDICAL AND SURGICAL HOSPITALS,https://www.healthy.arkansas.gov/images/uploads/pdf/hospitals_hfs_.xlsx,2022/01/21,IMAGERY,2014/03/12,http://www.fultoncountyhospital.org,AR4230,NOT AVAILABLE,"5",GOVERNMENT - LOCAL,"-999","25",LEVEL IV,Y,3,1008,4
"320","320","324","5971913",CHI ST. VINCENT HOSPITAL HOT SPRINGS,300 WERNER STREET,HOT SPRINGS,AR,"71913","6408",(501) 622-1120,GENERAL ACUTE CARE,OPEN,"282",GARLAND,"5051",USA,34.46802567,-93.06627041,"622110",GENERAL MEDICAL AND SURGICAL HOSPITALS,https://www.healthy.arkansas.gov/images/uploads/pdf/hospitals_hfs_.xlsx,2022/01/21,IMAGERY/OTHER,2014/02/10,http://www.chistvincent.com/hospitals/st-vincent-hot-springs,AR5099,NOT AVAILABLE,"5",NON-PROFIT,"-999","282",LEVEL II,Y,1,369,2
"321","321","325","4771913",CHI ST. VINCENT HOT SPRINGS REHABILITATION HOSPITAL - A PARTNER OF ENCOMPASS HEALTH,1636 HIGDON FERRY ROAD,HOT SPRINGS,AR,"71913","6912",(501) 651-2000,REHABILITATION,OPEN,"48",GARLAND,"5051",USA,34.46425123,-93.07493223,"622110",GENERAL MEDICAL AND SURGICAL HOSPITALS,https://www.healthy.arkansas.gov/images/uploads/pdf/hospitals_hfs_.xlsx,2022/01/21,IMAGERY/OTHER,2017/12/12,NOT AVAILABLE,AR5515,NOT AVAILABLE,"5",PROPRIETARY,"-999","48",NOT AVAILABLE,N,5,5637,6
"322","322","326","13571913",CHRISTUS DUBUIS HOSPITAL OF HOT SPRINGS,"300 WERNER STREET, 3RD FLOOR",HOT SPRINGS,AR,"71913","6406",(501) 609-4300,LONG TERM CARE,OPEN,"27",GARLAND,"5051",USA,34.46805422,-93.0672341,"622310",SPECIALTY (EXCEPT PSYCHIATRIC AND SUBSTANCE ABUSE) HOSPITALS,https://www.healthy.arkansas.gov/images/uploads/pdf/hospitals_hfs_.xlsx,2022/01/21,IMAGERY/OTHER,2016/03/09,http://www.christusdubuis.org/hotsprings,AR5357,NOT AVAILABLE,"5",PROPRIETARY,"-999","27",NOT AVAILABLE,Y,5,5637,6
"323","323","327","1971901",LEVI HOSPITAL,300 PROSPECT AVENUE,HOT SPRINGS,AR,"71901","4003",(501) 624-1281,GENERAL ACUTE CARE,OPEN,"50",GARLAND,"5051",USA,34.50989707,-93.05757749,"622110",GENERAL MEDICAL AND SURGICAL HOSPITALS,https://www.healthy.arkansas.gov/images/uploads/pdf/hospitals_hfs_.xlsx,2022/01/21,IMAGERY,2014/02/10,http://www.levihospital.com,AR5149,NOT AVAILABLE,"5",NON-PROFIT,"-999","50",NOT AVAILABLE,N,5,5637,6
"324","324","328","5600000",NATIONAL PARK MEDICAL CENTER,1910 MALVERN AVENUE,HOT SPRINGS,AR,"71901",NOT AVAILABLE,(501) 321-1000,GENERAL ACUTE CARE,OPEN,"163",GARLAND,"5051",USA,34.48610511,-93.03538527,"622110",GENERAL MEDICAL AND SURGICAL HOSPITALS,https://www.healthy.arkansas.gov/images/uploads/pdf/hospitals_hfs_.xlsx,2022/01/21,IMAGERY/OTHER,2014/02/10,http://www.nationalparkmedical.com,AR4187,NOT AVAILABLE,"5",PROPRIETARY,"-999","163",NOT AVAILABLE,Y,5,5637,6
"325","325","329","6272450",ARKANSAS METHODIST MEDICAL CENTER,900 WEST KINGSHIGHWAY,PARAGOULD,AR,"72450",NOT AVAILABLE,(870) 239-7000,GENERAL ACUTE CARE,OPEN,"129",GREENE,"5055",USA,36.05194431,-90.49845704,"622110",GENERAL MEDICAL AND SURGICAL HOSPITALS,https://www.healthy.arkansas.gov/images/uploads/pdf/hospitals_hfs_.xlsx,2022/01/21,IMAGERY/OTHER,2014/02/10,http://www.arkansasmethodist.org,AR4056,NOT AVAILABLE,"5",NON-PROFIT,"-999","129",LEVEL IV,Y,3,1008,4
"326","326","330","6371801",WADLEY REGIONAL MEDICAL CENTER AT HOPE,2001 SOUTH MAIN,HOPE,AR,"71801","8124",(870) 722-3800,GENERAL ACUTE CARE,OPEN,"48",HEMPSTEAD,"5057",USA,33.64817908,-93.58441613,"622110",GENERAL MEDICAL AND SURGICAL HOSPITALS,https://www.healthy.arkansas.gov/images/uploads/pdf/hospitals_hfs_.xlsx,2022/01/21,IMAGERY/OTHER,2014/02/10,NOT AVAILABLE,AR4793,NOT AVAILABLE,"5",PROPRIETARY,"-999","48",NOT AVAILABLE,Y,5,5637,6
"327","327","331","12172104",ARKANSAS DEPARTMENT OF CORRECTION - OUACHITA RIVER UNIT INPATIENT CARE FACILITY,100 WALCO LANE,MALVERN,AR,"72104",NOT AVAILABLE,(501) 467-3400,GENERAL ACUTE CARE,OPEN,"28",HOT SPRING,"5059",USA,34.34486847,-92.84270041,"622110",GENERAL MEDICAL AND SURGICAL HOSPITALS,https://www.healthy.arkansas.gov/images/uploads/pdf/hospitals_hfs_.xlsx,2022/01/21,IMAGERY,2016/07/06,NOT AVAILABLE,AR4756,NOT AVAILABLE,"5",GOVERNMENT - STATE,"-999","28",NOT AVAILABLE,N,5,5637,6
"328","328","332","6600000",BAPTIST HEALTH MEDICAL CENTER - HOT SPRING COUNTY,1001 SCHNEIDER DRIVE,MALVERN,AR,"72104","4811",(501) 332-1000,GENERAL ACUTE CARE,OPEN,"72",HOT SPRING,"5059",USA,34.35877404,-92.7858884,"622110",GENERAL MEDICAL AND SURGICAL HOSPITALS,https://www.healthy.arkansas.gov/images/uploads/pdf/hospitals_hfs_.xlsx,2022/01/21,IMAGERY/OTHER,2014/02/10,http://www.hscmc.org/,AR5048,NOT AVAILABLE,"5",PROPRIETARY,"-999","72",LEVEL IV,Y,3,1008,4
"329","329","333","64371852",HOWARD MEMORIAL HOSPITAL,130 MEDICAL CIRCLE,NASHVILLE,AR,"71852",NOT AVAILABLE,(870) 845-4400,GENERAL ACUTE CARE,OPEN,"20",HOWARD,"5061",USA,33.94972276,-93.88054918,"622110",GENERAL MEDICAL AND SURGICAL HOSPITALS,https://www.healthy.arkansas.gov/images/uploads/pdf/hospitals_hfs_.xlsx,2022/01/21,IMAGERY/OTHER,2014/12/02,NOT AVAILABLE,AR4577,NOT AVAILABLE,"5",NOT AVAILABLE,"-999","20",LEVEL IV,Y,3,1008,4
"330","330","334","6772501",WHITE RIVER MEDICAL CENTER,1710 HARRISON STREET,BATESVILLE,AR,"72501",NOT AVAILABLE,(870) 262-1200,GENERAL ACUTE CARE,OPEN,"224",INDEPENDENCE,"5063",USA,35.76786926,-91.63459098,"622110",GENERAL MEDICAL AND SURGICAL HOSPITALS,https://www.healthy.arkansas.gov/images/uploads/pdf/hospitals_hfs_.xlsx,2022/01/21,IMAGERY/OTHER,2014/02/10,http://www.whiteriverhealthsystem.com,"418",NOT AVAILABLE,"5",NON-PROFIT,"-999","224",LEVEL III,Y,2,551,3
"331","331","335","3572519","IZARD COUNTY MEDICAL CENTER, LLC",61 GRASSE STREET,CALICO ROCK,AR,"72519","9056",(870) 297-2400,CRITICAL ACCESS,OPEN,"25",IZARD,"5065",USA,36.12677685,-92.12808717,"622110",GENERAL MEDICAL AND SURGICAL HOSPITALS,https://www.healthy.arkansas.gov/images/uploads/pdf/hospitals_hfs_.xlsx,2022/01/21,IMAGERY/OTHER,2014/02/10,NOT AVAILABLE,AR5341,NOT AVAILABLE,"5",NON-PROFIT,"-999","25",NOT AVAILABLE,N,5,5637,6
"332","332","336","61172112",UNITY HEALTH HARRIS MEDICAL CENTER,1205 MCLAIN STREET,NEWPORT,AR,"72112","3533",(870) 523-8911,GENERAL ACUTE CARE,OPEN,"133",JACKSON,"5067",USA,35.60856885,-91.26506006,"622110",GENERAL MEDICAL AND SURGICAL HOSPITALS,https://www.healthy.arkansas.gov/images/uploads/pdf/hospitals_hfs_.xlsx,2022/01/21,IMAGERY/OTHER,2014/11/18,NOT AVAILABLE,AR5107,NOT AVAILABLE,"5",NOT AVAILABLE,"-999","133",LEVEL IV,Y,3,1008,4
"333","333","337","6871603",JEFFERSON REGIONAL MEDICAL CENTER,1600 WEST 40TH AVENUE,PINE BLUFF,AR,"71603",NOT AVAILABLE,(870) 541-7100,GENERAL ACUTE CARE,OPEN,"300",JEFFERSON,"5069",USA,34.18773469,-92.0176802,"622110",GENERAL MEDICAL AND SURGICAL HOSPITALS,https://www.healthy.arkansas.gov/images/uploads/pdf/hospitals_hfs_.xlsx,2022/01/21,IMAGERY/OTHER,2014/02/10,http://www.jrmc.org,AR4213,NOT AVAILABLE,"5",NON-PROFIT,"-999","300",LEVEL III,Y,2,551,3
"334","334","338","1472830",JOHNSON REGIONAL MEDICAL CENTER,1100 EAST POPLAR STREET,CLARKSVILLE,AR,"72830",NOT AVAILABLE,(479) 754-5454,GENERAL ACUTE CARE,OPEN,"90",JOHNSON,"5071",USA,35.46157579,-93.44408063,"622110",GENERAL MEDICAL AND SURGICAL HOSPITALS,https://www.healthy.arkansas.gov/images/uploads/pdf/hospitals_hfs_.xlsx,2022/01/21,IMAGERY/OTHER,2014/02/10,http://www.jrmc.com,"3028",NOT AVAILABLE,"5",NON-PROFIT,"-999","90",LEVEL IV,Y,3,1008,4
"335","335","339","4872476",LAWRENCE MEMORIAL HOSPITAL,1309 WEST MAIN,WALNUT RIDGE,AR,"72476","1430",(870) 886-1200,CRITICAL ACCESS,OPEN,"25",LAWRENCE,"5075",USA,36.0737585,-90.96782345,"622110",GENERAL MEDICAL AND SURGICAL HOSPITALS,https://www.healthy.arkansas.gov/images/uploads/pdf/hospitals_hfs_.xlsx,2022/01/21,IMAGERY/OTHER,2014/02/10,http://www.lawrencehealth.net,AR5522,NOT AVAILABLE,"5",GOVERNMENT - LOCAL,"-999","25",NOT AVAILABLE,Y,5,5637,6
"336","336","340","4071822",LITTLE RIVER MEMORIAL HOSPITAL,451 WEST LOCKE STREET,ASHDOWN,AR,"71822",NOT AVAILABLE,(870) 898-5011,CRITICAL ACCESS,OPEN,"25",LITTLE RIVER,"5081",USA,33.66925282,-94.13485202,"622110",GENERAL MEDICAL AND SURGICAL HOSPITALS,https://www.healthy.arkansas.gov/images/uploads/pdf/hospitals_hfs_.xlsx,2022/01/21,IMAGERY/OTHER,2013/09/19,http://littlerivercounty.org/index.php/component/contact/34-hospital/98-little-river-memorial-hospital,AR5219,NOT AVAILABLE,"5",GOVERNMENT - LOCAL,"-999","25",NOT AVAILABLE,N,5,5637,6
"337","337","341","4972927",MERCY HOSPITAL BOONEVILLE,880 WEST MAIN STREET,BOONEVILLE,AR,"72927","3443",(479) 675-2800,CRITICAL ACCESS,OPEN,"25",LOGAN,"5083",USA,35.14032192,-93.93517063,"622110",GENERAL MEDICAL AND SURGICAL HOSPITALS,https://www.healthy.arkansas.gov/images/uploads/pdf/hospitals_hfs_.xlsx,2022/01/21,IMAGERY/OTHER,2014/02/10,http://www.boonevillehospital.com,AR5030,NOT AVAILABLE,"5",NON-PROFIT,"-999","25",LEVEL IV,Y,3,1008,4
"338","338","342","5172855",MERCY HOSPITAL PARIS,500 EAST ACADEMY,PARIS,AR,"72855",NOT AVAILABLE,(479) 963-6101,CRITICAL ACCESS,OPEN,"16",LOGAN,"5083",USA,35.28929334,-93.72487855,"622110",GENERAL MEDICAL AND SURGICAL HOSPITALS,https://www.healthy.arkansas.gov/images/uploads/pdf/hospitals_hfs_.xlsx,2022/01/21,IMAGERY/OTHER,2014/02/10,http://www.mercy.net/practice/mercy-hospital-paris,AR4938,NOT AVAILABLE,"5",NON-PROFIT,"-999","16",LEVEL IV,Y,3,1008,4
"339","339","343","196784207",CABOT EMERGENCY HOSPITAL,212 WILLIE RAY DRIVE,CABOT,AR,"72023",NOT AVAILABLE,(501) 333-9110,GENERAL ACUTE CARE,OPEN,"4",LONOKE,"5085",USA,34.9816286,-92.0347837,"622110",GENERAL MEDICAL AND SURGICAL HOSPITALS,https://www.healthy.arkansas.gov/images/uploads/pdf/hospitals_hfs_.xlsx,2022/01/21,IMAGERY/OTHER,2022/04/01,NOT AVAILABLE,AR5615,NOT AVAILABLE,"5",NOT AVAILABLE,"-999","4",NOT AVAILABLE,N,5,5637,6
"340","340","344","63771854",RIVERVIEW BEHAVIORAL HEALTH,"701 ARKANSAS BOULEVARD, SUITE 300",TEXARKANA,AR,"71854",NOT AVAILABLE,(870) 772-5028,PSYCHIATRIC,OPEN,"62",MILLER,"5091",USA,33.46107002,-94.03409087,"622210",PSYCHIATRIC AND SUBSTANCE ABUSE HOSPITALS,https://www.healthy.arkansas.gov/images/uploads/pdf/hospitals_hfs_.xlsx,2022/01/21,IMAGERY/OTHER,2014/12/02,NOT AVAILABLE,AR5046,NOT AVAILABLE,"5",NOT AVAILABLE,"-999","62",NOT AVAILABLE,N,5,5637,6
"341","341","345","5272315",GREAT RIVER MEDICAL CENTER,1520 NORTH DIVISION STREET,BLYTHEVILLE,AR,"72315","1448",(870) 838-7300,GENERAL ACUTE CARE,OPEN,"99",MISSISSIPPI,"5093",USA,35.94301993,-89.91731125,"622110",GENERAL MEDICAL AND SURGICAL HOSPITALS,https://www.healthy.arkansas.gov/images/uploads/pdf/hospitals_hfs_.xlsx,2022/01/21,IMAGERY,2014/02/10,http://www.mchsys.org/getpage.php?name=greatriver,AR4562,NOT AVAILABLE,"5",GOVERNMENT - LOCAL,"-999","99",LEVEL IV,Y,3,1008,4
"342","342","346","5772370",SOUTH MISSISSIPPI COUNTY REGIONAL MEDICAL CENTER,611 WEST LEE AVENUE,OSCEOLA,AR,"72370",NOT AVAILABLE,(870) 563-7000,CRITICAL ACCESS,OPEN,"25",MISSISSIPPI,"5093",USA,35.69970508,-89.97557004,"622110",GENERAL MEDICAL AND SURGICAL HOSPITALS,https://www.healthy.arkansas.gov/images/uploads/pdf/hospitals_hfs_.xlsx,2022/01/21,IMAGERY/OTHER,2014/03/12,http://www.mchsys.org/getpage.php?name=smrmc,AR4563,NOT AVAILABLE,"5",GOVERNMENT - LOCAL,"-999","25",LEVEL IV,N,3,1008,4
"343","343","347","6171701",OUACHITA COUNTY MEDICAL CENTER,638 CALIFORNIA AVENUE,CAMDEN,AR,"71701",NOT AVAILABLE,(870) 836-1000,GENERAL ACUTE CARE,OPEN,"98",OUACHITA,"5103",USA,33.57582113,-92.83673933,"622110",GENERAL MEDICAL AND SURGICAL HOSPITALS,https://www.healthy.arkansas.gov/images/uploads/pdf/hospitals_hfs_.xlsx,2022/01/21,IMAGERY/OTHER,2014/02/10,http://www.ouachitamedcenter.com,AR2653,NOT AVAILABLE,"5",NON-PROFIT,"-999","98",LEVEL IV,Y,3,1008,4
"344","344","348","7100000",HELENA REGIONAL MEDICAL CENTER,1801 MARTIN LUTHER KING JR DRIVE,HELENA,AR,"72342",NOT AVAILABLE,(870) 338-5800,GENERAL ACUTE CARE,OPEN,"155",PHILLIPS,"5107",USA,34.51028534,-90.62710336,"622110",GENERAL MEDICAL AND SURGICAL HOSPITALS,https://www.healthy.arkansas.gov/images/uploads/pdf/hospitals_hfs_.xlsx,2022/01/21,IMAGERY/OTHER,2014/02/10,http://www.helenarmc.com,AR5527,NOT AVAILABLE,"5",PROPRIETARY,"-999","155",NOT AVAILABLE,Y,5,5637,6
"345","345","349","3271953",MENA REGIONAL HEALTH SYSTEM,311 NORTH MORROW STREET,MENA,AR,"71953",NOT AVAILABLE,(479) 394-6100,GENERAL ACUTE CARE,OPEN,"65",POLK,"5113",USA,34.5890536,-94.22163124,"622110",GENERAL MEDICAL AND SURGICAL HOSPITALS,https://www.healthy.arkansas.gov/images/uploads/pdf/hospitals_hfs_.xlsx,2022/01/21,IMAGERY/OTHER,2014/02/10,http://menamedical.com/,AR4321,NOT AVAILABLE,"5",GOVERNMENT - LOCAL,"-999","65",LEVEL IV,Y,3,1008,4
"346","346","350","7272801",ST. MARY'S REGIONAL MEDICAL CENTER,1808 WEST MAIN STREET,RUSSELLVILLE,AR,"72801",NOT AVAILABLE,(479) 968-2841,GENERAL ACUTE CARE,OPEN,"170",POPE,"5115",USA,35.28355546,-93.15007797,"622110",GENERAL MEDICAL AND SURGICAL HOSPITALS,https://www.healthy.arkansas.gov/images/uploads/pdf/hospitals_hfs_.xlsx,2022/01/21,IMAGERY/OTHER,2014/02/10,http://www.saintmarysregional.com,AR4192,NOT AVAILABLE,"5",PROPRIETARY,"-999","170",LEVEL III,Y,2,551,3
"347","347","351","63872202",ARKANSAS CHILDREN'S HOSPITAL,"1 CHILDREN'S WAY, SLOT 301",LITTLE ROCK,AR,"72202",NOT AVAILABLE,(501) 364-1100,CHILDREN,OPEN,"336",PULASKI,"5119",USA,34.74323635,-92.29317669,"622110","CHILDREN'S HOSPITALS, GENERAL",https://www.healthy.arkansas.gov/images/uploads/pdf/hospitals_hfs_.xlsx,2022/01/21,IMAGERY/OTHER,2014/12/02,NOT AVAILABLE,AR4640,NOT AVAILABLE,"5",NOT AVAILABLE,"-999","336",LEVEL I,Y,0,426,1
"348","348","352","8572211","ARKANSAS HEART HOSPITAL, LLC",1701 SOUTH SHACKLEFORD ROAD,LITTLE ROCK,AR,"72211",NOT AVAILABLE,(501) 219-7000,GENERAL ACUTE CARE,OPEN,"110",PULASKI,"5119",USA,34.7391732,-92.39327696,"622110",GENERAL MEDICAL AND SURGICAL HOSPITALS,https://www.healthy.arkansas.gov/images/uploads/pdf/hospitals_hfs_.xlsx,2022/01/21,IMAGERY/OTHER,2014/03/12,http://www.arheart.com/,AR5092,NOT AVAILABLE,"5",PROPRIETARY,"-999","110",NOT AVAILABLE,Y,5,5637,6
"349","349","353","5300000",ARKANSAS SURGICAL HOSPITAL,5201 NORTH SHORE DRIVE,NORTH LITTLE ROCK,AR,"72118",NOT AVAILABLE,(501) 748-8000,SPECIAL,OPEN,"47",PULASKI,"5119",USA,34.80021039,-92.34888715,"622310",SPECIALTY (EXCEPT PSYCHIATRIC AND SUBSTANCE ABUSE) HOSPITALS,https://www.healthy.arkansas.gov/images/uploads/pdf/hospitals_hfs_.xlsx,2022/01/21,IMAGERY/OTHER,2014/02/10,http://www.arksurgicalhospital.com,AR4280,NOT AVAILABLE,"5",PROPRIETARY,"-999","47",NOT AVAILABLE,N,5,5637,6
"350","350","354","63972205","BAPTIST HEALTH EXTENDED CARE HOSPTIAL - LITTLE ROCK, INC","9601 BAPTIST HEALTH DRIVE, 10TH FLOOR",LITTLE ROCK,AR,"72205",NOT AVAILABLE,(501) 202-1070,LONG TERM CARE,OPEN,"36",PULASKI,"5119",USA,34.7441789,-92.38121,"622310",SPECIALTY (EXCEPT PSYCHIATRIC AND SUBSTANCE ABUSE) HOSPITALS,https://www.healthy.arkansas.gov/images/uploads/pdf/hospitals_hfs_.xlsx,2022/01/21,IMAGERY/OTHER,2014/12/02,NOT AVAILABLE,AR5295,NOT AVAILABLE,"5",NON-PROFIT,"-999","36",NOT AVAILABLE,Y,5,5637,6
"351","351","355","7372205",BAPTIST HEALTH MEDICAL CENTER - LITTLE ROCK,9601 BAPTIST HEALTH DRIVE,LITTLE ROCK,AR,"72205","6321",(501) 202-2200,GENERAL ACUTE CARE,OPEN,"827",PULASKI,"5119",USA,34.74389335,-92.38065104,"622110",GENERAL MEDICAL AND SURGICAL HOSPITALS,https://www.healthy.arkansas.gov/images/uploads/pdf/hospitals_hfs_.xlsx,2022/01/21,IMAGERY/OTHER,2014/02/10,http://www.baptist-health.org/maps-directions/bhmc-lr,AR5299,NOT AVAILABLE,"5",NON-PROFIT,"-999","827",LEVEL II,Y,1,369,2
"352","352","356","60972209",BAPTIST HEALTH MEDICAL CENTER - LITTLE ROCK,11401 INTERSTATE 30,LITTLE ROCK,AR,"72209","7056",(501) 455-7101,PSYCHIATRIC,OPEN,"24",PULASKI,"5119",USA,34.65732672,-92.40274425,"622210",PSYCHIATRIC AND SUBSTANCE ABUSE HOSPITALS,https://www.healthy.arkansas.gov/images/uploads/pdf/hospitals_hfs_.xlsx,2022/01/21,IMAGERY,2014/11/18,NOT AVAILABLE,AR4555,NOT AVAILABLE,"5",NON-PROFIT,"-999","24",NOT AVAILABLE,Y,5,5637,6
"353","353","357","5000000",BAPTIST HEALTH MEDICAL CENTER - NORTH LITTLE ROCK,3333 SPRINGHILL DRIVE,NORTH LITTLE ROCK,AR,"72117",NOT AVAILABLE,(501) 202-3000,GENERAL ACUTE CARE,OPEN,"225",PULASKI,"5119",USA,34.78365489,-92.22340916,"622110",GENERAL MEDICAL AND SURGICAL HOSPITALS,https://www.healthy.arkansas.gov/images/uploads/pdf/hospitals_hfs_.xlsx,2022/01/21,IMAGERY/OTHER,2014/02/10,https://www.baptist-health.com/locations/accesspoint.aspx?accesspointid=190,AR3828,NOT AVAILABLE,"5",NON-PROFIT,"-999","225",LEVEL III,Y,2,551,3
"354","354","358","64072205",BAPTIST HEALTH REHABILITATION INSTITUTE,9601 BAPTIST HEALTH DRIVE,LITTLE ROCK,AR,"72205","6321",(501) 202-7578,REHABILITATION,OPEN,"120",PULASKI,"5119",USA,34.74429608,-92.38181609,"622310","REHABILITATION HOSPITALS (EXCEPT ALCOHOLISM, DRUG ADDICTION)",https://www.healthy.arkansas.gov/images/uploads/pdf/hospitals_hfs_.xlsx,2022/01/21,IMAGERY/OTHER,2014/12/02,NOT AVAILABLE,AR4970,NOT AVAILABLE,"5",NON-PROFIT,"-999","120",NOT AVAILABLE,Y,5,5637,6
"355","355","359","8672205",CHI ST. VINCENT INFIRMARY,2 ST VINCENT CIRCLE,LITTLE ROCK,AR,"72205","5499",(501) 552-3000,GENERAL ACUTE CARE,OPEN,"615",PULASKI,"5119",USA,34.75001981,-92.33939373,"622110",GENERAL MEDICAL AND SURGICAL HOSPITALS,https://www.healthy.arkansas.gov/images/uploads/pdf/hospitals_hfs_.xlsx,2022/01/21,IMAGERY/OTHER,2014/02/10,NOT AVAILABLE,AR5523,NOT AVAILABLE,"5",NON-PROFIT,"-999","615",LEVEL II,Y,1,369,2
"356","356","360","7900000",CHI ST. VINCENT SHERWOOD REHABILITATION HOSPITAL - PARTNER OF ENCOMPASS HEALTH,2201 WILDWOOD AVENUE,SHERWOOD,AR,"72120","5074",(501) 834-1800,REHABILITATION,OPEN,"80",PULASKI,"5119",USA,34.81339713,-92.20902203,"622310","REHABILITATION HOSPITALS (EXCEPT ALCOHOLISM, DRUG ADDICTION)",https://www.healthy.arkansas.gov/images/uploads/pdf/hospitals_hfs_.xlsx,2022/01/21,IMAGERY/OTHER,2013/09/18,https://www.stvincenthealth.com/svrehabhospital/index.html,AR5516,NOT AVAILABLE,"5",PROPRIETARY,"-999","80",NOT AVAILABLE,N,5,5637,6
"357","357","361","12272205",CORNERSTONE SPECIALTY HOSPITALS LITTLE ROCK,"2 ST VINCENT CIRCLE, 6TH FLOOR",LITTLE ROCK,AR,"72205","5423",(501) 265-0622,LONG TERM CARE,OPEN,"40",PULASKI,"5119",USA,34.75040053,-92.33858471,"622310",SPECIALTY (EXCEPT PSYCHIATRIC AND SUBSTANCE ABUSE) HOSPITALS,https://www.healthy.arkansas.gov/images/uploads/pdf/hospitals_hfs_.xlsx,2022/01/21,IMAGERY/OTHER,2016/07/06,http://www.chghospitals.com/littlerock/,AR5519,NOT AVAILABLE,"5",PROPRIETARY,"-999","40",NOT AVAILABLE,Y,5,5637,6
"358","358","362","61772211",PINNACLE POINTE BEHAVIORAL HEALTHCARE SYSTEM,11501 FINANCIAL CENTRE PARKWAY,LITTLE ROCK,AR,"72211",NOT AVAILABLE,(501) 223-3322,PSYCHIATRIC,OPEN,"127",PULASKI,"5119",USA,34.7461006,-92.40171453,"622210",PSYCHIATRIC AND SUBSTANCE ABUSE HOSPITALS,https://www.healthy.arkansas.gov/images/uploads/pdf/hospitals_hfs_.xlsx,2022/01/21,IMAGERY/OTHER,2014/11/18,NOT AVAILABLE,AR5403,NOT AVAILABLE,"5",NOT AVAILABLE,"-999","127",NOT AVAILABLE,N,5,5637,6
"359","359","363","5400000",ST. VINCENT MEDICAL CENTER - NORTH,2215 WILDWOOD AVENUE,SHERWOOD,AR,"72120",NOT AVAILABLE,(501) 552-7100,GENERAL ACUTE CARE,OPEN,"69",PULASKI,"5119",USA,34.81309517,-92.20769063,"622110",GENERAL MEDICAL AND SURGICAL HOSPITALS,https://www.healthy.arkansas.gov/images/uploads/pdf/hospitals_hfs_.xlsx,2022/01/21,IMAGERY/OTHER,2014/02/10,NOT AVAILABLE,AR4197,NOT AVAILABLE,"5",NON-PROFIT,"-999","69",NOT AVAILABLE,Y,5,5637,6
"360","360","364","8772113",THE BRIDGEWAY,21 BRIDGEWAY ROAD,NORTH LITTLE ROCK,AR,"72113",NOT AVAILABLE,(501) 771-1500,PSYCHIATRIC,OPEN,"127",PULASKI,"5119",USA,34.82206665,-92.35476763,"622210",PSYCHIATRIC AND SUBSTANCE ABUSE HOSPITALS,https://www.healthy.arkansas.gov/images/uploads/pdf/hospitals_hfs_.xlsx,2022/01/21,IMAGERY/OTHER,2014/02/10,http://www.thebridgeway.com,AR5164,NOT AVAILABLE,"5",PROPRIETARY,"-999","127",NOT AVAILABLE,N,5,5637,6
"361","361","365","3072205",UAMS MEDICAL CENTER,4301 WEST MARKHAM STREET,LITTLE ROCK,AR,"72205","7199",(501) 686-5000,GENERAL ACUTE CARE,OPEN,"450",PULASKI,"5119",USA,34.74902515,-92.32013731,"622110",GENERAL MEDICAL AND SURGICAL HOSPITALS,https://www.healthy.arkansas.gov/images/uploads/pdf/hospitals_hfs_.xlsx,2022/01/21,IMAGERY/OTHER,2014/02/10,http://www.uamshealth.com/?id=1&sid=1,AR4128,NOT AVAILABLE,"5",GOVERNMENT - STATE,"-999","450",LEVEL I,Y,0,426,1
"362","362","366","6972113",UNITED METHODIST BEHAVIORAL HOSPITAL,1601 MURPHY DRIVE,MAUMELLE,AR,"72113",NOT AVAILABLE,(501) 803-3388,PSYCHIATRIC,OPEN,"60",PULASKI,"5119",USA,34.87643567,-92.39441325,"622210",PSYCHIATRIC AND SUBSTANCE ABUSE HOSPITALS,https://www.healthy.arkansas.gov/images/uploads/pdf/hospitals_hfs_.xlsx,2022/01/21,IMAGERY/OTHER,2014/02/10,http://www.umch.org,AR4089,NOT AVAILABLE,"5",NON-PROFIT,"-999","60",NOT AVAILABLE,N,5,5637,6
"363","363","367","8872455",ST. BERNARDS FIVE RIVERS MEDICAL CENTER,2801 MEDICAL CENTER DRIVE,POCAHONTAS,AR,"72455",NOT AVAILABLE,(870) 892-6000,GENERAL ACUTE CARE,OPEN,"50",RANDOLPH,"5121",USA,36.28976027,-90.99738763,"622110",GENERAL MEDICAL AND SURGICAL HOSPITALS,https://www.healthy.arkansas.gov/images/uploads/pdf/hospitals_hfs_.xlsx,2022/01/21,IMAGERY/OTHER,2014/02/10,http://www.fiveriversmedicalcenter.com,AR5626,NOT AVAILABLE,"5",NON-PROFIT,"-999","50",LEVEL IV,Y,3,1008,4
"364","364","368","8172019",RIVENDELL BEHAVIORAL HEALTH SERVICES OF ARKANSAS,100 RIVENDELL DRIVE,BENTON,AR,"72019","0908",(501) 316-1255,PSYCHIATRIC,OPEN,"80",SALINE,"5125",USA,34.61384598,-92.53293133,"622210",PSYCHIATRIC AND SUBSTANCE ABUSE HOSPITALS,https://www.healthy.arkansas.gov/images/uploads/pdf/hospitals_hfs_.xlsx,2022/01/21,IMAGERY,2014/02/10,http://www.rivendellofarkansas.com,AR5169,NOT AVAILABLE,"5",PROPRIETARY,"-999","80",NOT AVAILABLE,N,5,5637,6
"365","365","369","9072015",SALINE MEMORIAL HOSPITAL,1 MEDICAL PARK DRIVE,BENTON,AR,"72015",NOT AVAILABLE,(501) 776-6000,GENERAL ACUTE CARE,OPEN,"177",SALINE,"5125",USA,34.5733526,-92.58599017,"622110",GENERAL MEDICAL AND SURGICAL HOSPITALS,https://www.healthy.arkansas.gov/images/uploads/pdf/hospitals_hfs_.xlsx,2022/01/21,IMAGERY/OTHER,2014/03/13,http://www.salinememorial.org,AR5223,NOT AVAILABLE,"5",NON-PROFIT,"-999","177",LEVEL III,Y,2,551,3
"366","366","370","62872958",MERCY HOSPITAL WALDRON,1341 WEST SIXTH STREET,WALDRON,AR,"72958",NOT AVAILABLE,(479) 637-4135,GENERAL ACUTE CARE,OPEN,"24",SCOTT,"5127",USA,34.89455358,-94.105868,"622110",GENERAL MEDICAL AND SURGICAL HOSPITALS,https://www.healthy.arkansas.gov/images/uploads/pdf/hospitals_hfs_.xlsx,2022/01/21,IMAGERY/OTHER,2014/12/02,NOT AVAILABLE,AR4940,NOT AVAILABLE,"5",PROPRIETARY,"-999","24",LEVEL IV,Y,3,1008,4
"367","367","371","9172901",BAPTIST HEALTH - FORT SMITH,1001 TOWSON AVENUE,FORT SMITH,AR,"72901","4921",(479) 441-4000,GENERAL ACUTE CARE,OPEN,"492",SEBASTIAN,"5131",USA,35.37494781,-94.4194573,"622110",GENERAL MEDICAL AND SURGICAL HOSPITALS,https://www.healthy.arkansas.gov/images/uploads/pdf/hospitals_hfs_.xlsx,2022/01/21,IMAGERY/OTHER,2014/03/12,NOT AVAILABLE,AR5600,NOT AVAILABLE,"5",PROPRIETARY,"-999","492",LEVEL III,Y,2,551,3
"368","368","372","62272903",CHRISTUS DUBUIS HOSPITAL OF FORT SMITH,"7301 ROGERS AVENUE, 4TH FLOOR",FORT SMITH,AR,"72903","4100",(479) 314-4900,LONG TERM CARE,OPEN,"25",SEBASTIAN,"5131",USA,35.35586935,-94.35252746,"622310",SPECIALTY (EXCEPT PSYCHIATRIC AND SUBSTANCE ABUSE) HOSPITALS,https://www.healthy.arkansas.gov/images/uploads/pdf/hospitals_hfs_.xlsx,2022/01/21,IMAGERY/OTHER,2014/11/18,NOT AVAILABLE,AR5356,NOT AVAILABLE,"5",NON-PROFIT,"-999","25",NOT AVAILABLE,Y,5,5637,6
"369","369","373","7472901",ENCOMPASS HEALTH REHABILITATION HOSPITAL OF FORT SMITH,1401 SOUTH J STREET,FORT SMITH,AR,"72901","5158",(479) 785-3300,REHABILITATION,OPEN,"80",SEBASTIAN,"5131",USA,35.37394031,-94.41875448,"622310","REHABILITATION HOSPITALS (EXCEPT ALCOHOLISM, DRUG ADDICTION)",https://www.healthy.arkansas.gov/images/uploads/pdf/hospitals_hfs_.xlsx,2022/01/21,IMAGERY,2013/09/17,NOT AVAILABLE,AR5514,NOT AVAILABLE,"5",PROPRIETARY,"-999","80",NOT AVAILABLE,Y,5,5637,6
"370","370","374","372903",MERCY HOSPITAL FORT SMITH,7301 ROGERS AVENUE,FORT SMITH,AR,"72903",NOT AVAILABLE,(479) 314-6000,GENERAL ACUTE CARE,OPEN,"336",SEBASTIAN,"5131",USA,35.35586599,-94.35205497,"622110",GENERAL MEDICAL AND SURGICAL HOSPITALS,https://www.healthy.arkansas.gov/images/uploads/pdf/hospitals_hfs_.xlsx,2022/01/21,IMAGERY/OTHER,2014/02/10,http://www.stedwardmercy.com,AR4941,NOT AVAILABLE,"5",NON-PROFIT,"-999","336",LEVEL III,Y,2,551,3
"371","371","375","13772903",MERCY ORTHOPEDIC HOSPITAL FORT SMITH,3601 SOUTH 79TH STREET,FORT SMITH,AR,"72903",NOT AVAILABLE,(479) 314-6000,GENERAL ACUTE CARE,OPEN,"24",SEBASTIAN,"5131",USA,35.34745698,-94.34345322,"622110",GENERAL MEDICAL AND SURGICAL HOSPITALS,https://www.healthy.arkansas.gov/images/uploads/pdf/hospitals_hfs_.xlsx,2022/01/21,IMAGERY/OTHER,2016/03/09,https://www.mercy.net/practice/mercy-orthopedic-hospital-fort-smith,AR5079,NOT AVAILABLE,"5",NON-PROFIT,"-999","24",NOT AVAILABLE,N,5,5637,6
"372","372","376","61972901","SELECT SPECIALTY HOSPITAL - FORT SMITH, INC","1001 TOWSON AVENUE, SIXTH FLOOR",FORT SMITH,AR,"72901",NOT AVAILABLE,(479) 441-3960,GENERAL ACUTE CARE,OPEN,"34",SEBASTIAN,"5131",USA,35.37501657,-94.41973301,"622110",GENERAL MEDICAL AND SURGICAL HOSPITALS,https://www.healthy.arkansas.gov/images/uploads/pdf/hospitals_hfs_.xlsx,2022/01/21,IMAGERY/OTHER,2014/11/18,NOT AVAILABLE,AR4423,NOT AVAILABLE,"5",NOT AVAILABLE,"-999","34",NOT AVAILABLE,Y,5,5637,6
"373","373","377","8272923",VALLEY BEHAVIORAL HEALTH SYSTEM,10301 MAYO DRIVE,BARLING,AR,"72923","1660",(479) 494-5700,PSYCHIATRIC,OPEN,"114",SEBASTIAN,"5131",USA,35.34133753,-94.31306819,"622210",PSYCHIATRIC AND SUBSTANCE ABUSE HOSPITALS,https://www.healthy.arkansas.gov/images/uploads/pdf/hospitals_hfs_.xlsx,2022/01/21,IMAGERY/OTHER,2014/02/10,http://www.vistahealthservices.com,AR5044,NOT AVAILABLE,"5",PROPRIETARY,"-999","114",NOT AVAILABLE,N,5,5637,6
"374","374","378","1200000",FORREST CITY MEDICAL CENTER,1601 NEWCASTLE ROAD,FORREST CITY,AR,"72335",NOT AVAILABLE,(870) 261-0000,GENERAL ACUTE CARE,OPEN,"118",ST. FRANCIS,"5123",USA,35.04001925,-90.77588392,"622110",GENERAL MEDICAL AND SURGICAL HOSPITALS,https://www.healthy.arkansas.gov/images/uploads/pdf/hospitals_hfs_.xlsx,2022/01/21,IMAGERY,2014/03/12,http://www.forrestcitymedicalcenter.com,AR4368,NOT AVAILABLE,"5",PROPRIETARY,"-999","118",LEVEL IV,Y,3,1008,4
"375","375","379","1672560",STONE COUNTY MEDICAL CENTER,2106 EAST MAIN STREET,MOUNTAIN VIEW,AR,"72560",NOT AVAILABLE,(870) 269-4361,CRITICAL ACCESS,OPEN,"25",STONE,"5137",USA,35.85658313,-92.08286453,"622110",GENERAL MEDICAL AND SURGICAL HOSPITALS,https://www.healthy.arkansas.gov/images/uploads/pdf/hospitals_hfs_.xlsx,2022/01/21,IMAGERY/OTHER,2014/02/10,NOT AVAILABLE,AR5036,NOT AVAILABLE,"5",NON-PROFIT,"-999","25",LEVEL IV,Y,3,1008,4
"376","376","380","7572031",OZARK HEALTH,2500 HIGHWAY 65 SOUTH,CLINTON,AR,"72031",NOT AVAILABLE,(501) 745-7000,CRITICAL ACCESS,OPEN,"25",VAN BUREN,"5141",USA,35.55950138,-92.45217357,"622110",GENERAL MEDICAL AND SURGICAL HOSPITALS,https://www.healthy.arkansas.gov/images/uploads/pdf/hospitals_hfs_.xlsx,2022/01/21,IMAGERY,2021/05/24,http://www.ozarkhealthinc.com,AR4237,NOT AVAILABLE,"5",NON-PROFIT,"-999","25",LEVEL IV,N,3,1008,4
"377","377","381","190372762","ARKANSAS CHILDREN'S NORTHWEST, INC",2601 GENE GEORGE BOULEVARD,SPRINGDALE,AR,"72762",NOT AVAILABLE,(479) 725-6800,CHILDREN,OPEN,"24",WASHINGTON,"5143",USA,36.1624095,-94.19046429,"622110","CHILDREN'S HOSPITALS, GENERAL",https://www.healthy.arkansas.gov/images/uploads/pdf/hospitals_hfs_.xlsx,2022/01/21,IMAGERY/OTHER,2020/05/05,https://www.archildrens.org/,AR5392,NOT AVAILABLE,"5",NOT AVAILABLE,"-999","24",LEVEL IV,Y,3,1008,4
"378","378","382","2772703",ENCOMPASS HEALTH REHABILITATION HOSPITAL - A PARTNER OF WASHINGTON REGIONAL,153 EAST MONTE PAINTER DRIVE,FAYETTEVILLE,AR,"72703","4002",(479) 444-2200,REHABILITATION,OPEN,"80",WASHINGTON,"5143",USA,36.10909938,-94.15484504,"622310","REHABILITATION HOSPITALS (EXCEPT ALCOHOLISM, DRUG ADDICTION)",https://www.healthy.arkansas.gov/images/uploads/pdf/hospitals_hfs_.xlsx,2022/01/21,IMAGERY/OTHER,2013/09/18,http://www.healthsouthfayetteville.com,AR5518,NOT AVAILABLE,"5",PROPRIETARY,"-999","80",NOT AVAILABLE,N,5,5637,6
"379","379","383","61672703",NORTHWEST HEALTH PHYSICIANS' SPECIALTY HOSPITAL,3873 NORTH PARKVIEW DRIVE,FAYETTEVILLE,AR,"72703","6286",(479) 571-7070,GENERAL ACUTE CARE,OPEN,"20",WASHINGTON,"5143",USA,36.12132636,-94.1340396,"622110",GENERAL MEDICAL AND SURGICAL HOSPITALS,https://www.healthy.arkansas.gov/images/uploads/pdf/hospitals_hfs_.xlsx,2022/01/21,IMAGERY/OTHER,2014/11/18,NOT AVAILABLE,AR5769,NOT AVAILABLE,"5",NOT AVAILABLE,"-999","20",NOT AVAILABLE,N,5,5637,6
"380","380","384","2972764",NORTHWEST MEDICAL CENTER,609 WEST MAPLE AVENUE,SPRINGDALE,AR,"72764","5335",(479) 751-5711,GENERAL ACUTE CARE,OPEN,"222",WASHINGTON,"5143",USA,36.17987716,-94.13664285,"622110",GENERAL MEDICAL AND SURGICAL HOSPITALS,https://www.healthy.arkansas.gov/images/uploads/pdf/hospitals_hfs_.xlsx,2022/01/21,IMAGERY,2014/03/12,http://www.northwesthealth.com,AR4449,NOT AVAILABLE,"5",PROPRIETARY,"-999","222",LEVEL III,Y,2,551,3
"381","381","385","9672762",NORTHWEST MEDICAL CENTER - WILLOW CREEK WOMEN'S HOSPITAL,4301 GREATHOUSE SPRINGS ROAD,JOHNSON,AR,"72741",NOT AVAILABLE,(479) 684-3000,WOMEN,OPEN,"64",WASHINGTON,"5143",USA,36.13551027,-94.18621922,"622110",GENERAL MEDICAL AND SURGICAL HOSPITALS,https://www.healthy.arkansas.gov/images/uploads/pdf/hospitals_hfs_.xlsx,2022/01/21,IMAGERY,2014/02/10,http://www.northwesthealth.com/pages/home.aspx,AR4450,NOT AVAILABLE,"5",PROPRIETARY,"-999","64",NOT AVAILABLE,Y,5,5637,6
"382","382","386","61872764",REGENCY HOSPITAL OF SPRINGDALE,609 WEST MAPLE AVENUE,SPRINGDALE,AR,"72764",NOT AVAILABLE,(479) 757-2600,SPECIAL,OPEN,"25",WASHINGTON,"5143",USA,36.18053846,-94.13697878,"622310",SPECIALTY (EXCEPT PSYCHIATRIC AND SUBSTANCE ABUSE) HOSPITALS,https://www.healthy.arkansas.gov/images/uploads/pdf/hospitals_hfs_.xlsx,2022/01/21,IMAGERY/OTHER,2014/11/18,NOT AVAILABLE,AR4245,NOT AVAILABLE,"5",NOT AVAILABLE,"-999","25",NOT AVAILABLE,Y,5,5637,6
"383","383","387","9372703",VANTAGE POINT OF NORTHWEST ARKANSAS,4253 CROSSOVER ROAD,FAYETTEVILLE,AR,"72703",NOT AVAILABLE,(479) 521-5731,PSYCHIATRIC,OPEN,"114",WASHINGTON,"5143",USA,36.12789076,-94.11985143,"622210",PSYCHIATRIC AND SUBSTANCE ABUSE HOSPITALS,https://www.healthy.arkansas.gov/images/uploads/pdf/hospitals_hfs_.xlsx,2022/01/21,IMAGERY/OTHER,2014/02/10,http://www.vistahealthservices.com,AR5042,NOT AVAILABLE,"5",PROPRIETARY,"-999","114",NOT AVAILABLE,N,5,5637,6
"384","384","388","9500000",WASHINGTON REGIONAL MEDICAL CENTER,3215 N NORTH HILLS BOULEVARD,FAYETTEVILLE,AR,"72703",NOT AVAILABLE,(479) 463-1000,GENERAL ACUTE CARE,OPEN,"425",WASHINGTON,"5143",USA,36.10928262,-94.16005156,"622110",GENERAL MEDICAL AND SURGICAL HOSPITALS,https://www.healthy.arkansas.gov/images/uploads/pdf/hospitals_hfs_.xlsx,2022/01/21,IMAGERY/OTHER,2014/02/10,http://www.wregional.com,AR5143,NOT AVAILABLE,"5",NON-PROFIT,"-999","425",LEVEL II,Y,1,369,2
"385","385","389","62372143",ADVANCED CARE HOSPITAL OF WHITE COUNTY,1200 SOUTH MAIN STREET,SEARCY,AR,"72143",NOT AVAILABLE,(501) 278-3155,SPECIAL,OPEN,"27",WHITE,"5145",USA,35.23363995,-91.73120168,"622310",SPECIALTY (EXCEPT PSYCHIATRIC AND SUBSTANCE ABUSE) HOSPITALS,https://www.healthy.arkansas.gov/images/uploads/pdf/hospitals_hfs_.xlsx,2022/01/21,IMAGERY/OTHER,2014/11/18,NOT AVAILABLE,AR4452,NOT AVAILABLE,"5",GOVERNMENT - LOCAL,"-999","27",NOT AVAILABLE,Y,5,5637,6
"386","386","390","196784171",UNITY HEALTH SPECIALTY CARE CAMPUS,1200 SOUTH MAIN STREET,SEARCY,AR,"72143",NOT AVAILABLE,(501) 278-3100,GENERAL ACUTE CARE,OPEN,"193",WHITE,"5145",USA,35.23401385,-91.73184178,"622110",GENERAL MEDICAL AND SURGICAL HOSPITALS,https://www.healthy.arkansas.gov/images/uploads/pdf/hospitals_hfs_.xlsx,2022/01/21,IMAGERY/OTHER,2022/04/01,NOT AVAILABLE,AR5624,NOT AVAILABLE,"5",NOT AVAILABLE,"-999","193",NOT AVAILABLE,Y,5,5637,6
"387","387","391","10172143",UNITY HEALTH WHITE COUNTY MEDICAL CENTER,3214 EAST RACE AVENUE,SEARCY,AR,"72143",NOT AVAILABLE,(501) 268-6121,GENERAL ACUTE CARE,OPEN,"245",WHITE,"5145",USA,35.25188604,-91.69700113,"622110",GENERAL MEDICAL AND SURGICAL HOSPITALS,https://www.healthy.arkansas.gov/images/uploads/pdf/hospitals_hfs_.xlsx,2022/01/21,IMAGERY/OTHER,2014/02/10,http://www.wcmc.org,AR5623,NOT AVAILABLE,"5",NON-PROFIT,"-999","245",LEVEL III,Y,2,551,3
"388","388","392","7672833",CHAMBERS MEMORIAL HOSPITAL,719 DETROIT STREET,DANVILLE,AR,"72833","0639",(479) 495-2241,GENERAL ACUTE CARE,OPEN,"42",YELL,"5149",USA,35.05442978,-93.38805914,"622110",GENERAL MEDICAL AND SURGICAL HOSPITALS,https://www.healthy.arkansas.gov/images/uploads/pdf/hospitals_hfs_.xlsx,2022/01/21,IMAGERY/OTHER,2014/03/12,http://www.chambershospital.com,AR4825,NOT AVAILABLE,"5",NON-PROFIT,"-999","42",LEVEL IV,Y,3,1008,4
"389","389","393","196784201",DARDANELLE HOSPITAL,200 NORTH THIRD STREET,DARDANELLE,AR,"72834","4677",(479) 229-4677,CRITICAL ACCESS,OPEN,"35",YELL,"5149",USA,35.22048712,-93.15726464,"622110",GENERAL MEDICAL AND SURGICAL HOSPITALS,https://www.healthy.arkansas.gov/images/uploads/pdf/hospitals_hfs_.xlsx,2022/01/21,IMAGERY/OTHER,2022/04/01,NOT AVAILABLE,AR5601,NOT AVAILABLE,"5",NOT AVAILABLE,"-999","35",LEVEL IV,N,3,1008,4
"390","390","394","196784325",MERCY REHABILITATION HOSPITAL,6700 CHAD COLLEY BOULEVARD,FORT SMITH,AR,"72916","6120",(479) 974-5700,REHABILITATION,OPEN,"50",SEBASTIAN,"5131",USA,35.31948633,-94.31679175,"622310","REHABILITATION HOSPITALS (EXCEPT ALCOHOLISM, DRUG ADDICTION)",https://www.healthy.arkansas.gov/images/uploads/pdf/hospitals_hfs_.xlsx,2022/01/21,IMAGERY/OTHER,2022/02/28,NOT AVAILABLE,AR5744,NOT AVAILABLE,"5",NOT AVAILABLE,"-999","50",NOT AVAILABLE,N,5,5637,6
"391","391","395","2171653",CHICOT MEMORIAL MEDICAL CENTER,2729 SOUTH HIGHWAY 65 AND HIGHWAY 82,LAKE VILLAGE,AR,"71653","6136",(870) 265-9200,CRITICAL ACCESS,OPEN,"25",CHICOT,"5017",USA,33.30659877,-91.29038904,"622110",GENERAL MEDICAL AND SURGICAL HOSPITALS,https://www.healthy.arkansas.gov/images/uploads/pdf/hospitals_hfs_.xlsx,2022/01/21,IMAGERY/OTHER,2014/03/12,http://www.chicotmemorial.com,AR5182,NOT AVAILABLE,"5",NON-PROFIT,"-999","25",LEVEL IV,Y,3,1008,4
"392","392","396","62172704",SPRINGWOODS BEHAVIORAL HEALTH SERVICES,1955 WEST TRUCKER'S DRIVE,FAYETTEVILLE,AR,"72704","5637",(479) 973-6000,PSYCHIATRIC,OPEN,"80",WASHINGTON,"5143",USA,36.10848311,-94.18683551,"622210",PSYCHIATRIC AND SUBSTANCE ABUSE HOSPITALS,https://www.healthy.arkansas.gov/images/uploads/pdf/hospitals_hfs_.xlsx,2022/01/21,IMAGERY/OTHER,2014/11/18,NOT AVAILABLE,AR4604,NOT AVAILABLE,"5",NOT AVAILABLE,"-999","80",NOT AVAILABLE,N,5,5637,6
"393","393","397","29595823",METHODIST HOSPITAL OF SACRAMENTO,7500 HOSPITAL DRIVE,SACRAMENTO,CA,"95823","5403",(916) 423-3000,GENERAL ACUTE CARE,OPEN,"158",SACRAMENTO,"6067",USA,38.46354745,-121.41652644,"622110",GENERAL MEDICAL AND SURGICAL HOSPITALS,https://data.chhs.ca.gov/dataset/3b5b80e8-6b8d-4715-b3c0-2699af6e72e5/resource/098bbc36-044d-441f-9442-1f4db4d8aaa0/download/healthcare_facility_locations.xlsx,2021/10/01,IMAGERY,2014/02/10,NOT AVAILABLE,"030000037",DIGNITY COMMUNITY CARE,"6",NON-PROFIT,"-999","158",NOT AVAILABLE,N,5,5637,6
"394","394","398","47295642",SUTTER AMADOR HOSPITAL,200 MISSION BOULEVARD,JACKSON,CA,"95642","2564",(209) 223-7500,GENERAL ACUTE CARE,OPEN,"52",AMADOR,"6005",USA,38.35011701,-120.76434117,"622110",GENERAL MEDICAL AND SURGICAL HOSPITALS,https://data.chhs.ca.gov/dataset/3b5b80e8-6b8d-4715-b3c0-2699af6e72e5/resource/098bbc36-044d-441f-9442-1f4db4d8aaa0/download/healthcare_facility_locations.xlsx,2021/10/01,IMAGERY/OTHER,2014/02/10,NOT AVAILABLE,"030000108",SUTTER VALLEY HOSPITALS,"6",NON-PROFIT,"-999","52",NOT AVAILABLE,Y,5,5637,6
"395","395","399","47395602",SUTTER AUBURN FAITH HOSPITAL,11815 EDUCATION STREET,AUBURN,CA,"95602","2410",(530) 888-4557,GENERAL ACUTE CARE,OPEN,"64",PLACER,"6061",USA,38.94510372,-121.10074822,"622110",GENERAL MEDICAL AND SURGICAL HOSPITALS,https://data.chhs.ca.gov/dataset/3b5b80e8-6b8d-4715-b3c0-2699af6e72e5/resource/098bbc36-044d-441f-9442-1f4db4d8aaa0/download/healthcare_facility_locations.xlsx,2021/10/01,IMAGERY,2014/02/10,NOT AVAILABLE,"030000109",SUTTER VALLEY HOSPITALS,"6",NON-PROFIT,"-999","64",NOT AVAILABLE,N,5,5637,6
"396","396","400","51195817",UNIVERSITY OF CALIFORNIA DAVIS MEDICAL CENTER,2315 STOCKTON BOULEVARD,SACRAMENTO,CA,"95817","2201",(916) 734-2777,GENERAL ACUTE CARE,OPEN,"646",SACRAMENTO,"6067",USA,38.55492974,-121.45545551,"622110",GENERAL MEDICAL AND SURGICAL HOSPITALS,https://data.chhs.ca.gov/dataset/3b5b80e8-6b8d-4715-b3c0-2699af6e72e5/resource/098bbc36-044d-441f-9442-1f4db4d8aaa0/download/healthcare_facility_locations.xlsx,2021/10/01,IMAGERY,2014/02/10,NOT AVAILABLE,"030000113",UNIVERSITY OF CALIFORNIA BOARD OF REGENTS,"6",GOVERNMENT - STATE,"-999","646","LEVEL I ADULT, LEVEL I PEDIATRIC",Y,0,0,0
"397","397","401","3496150",BARTON MEMORIAL HOSPITAL,2170 SOUTH AVENUE,SOUTH LAKE TAHOE,CA,"96150","7025",(530) 541-3420,GENERAL ACUTE CARE,OPEN,"63",EL DORADO,"6017",USA,38.91157868,-119.99654685,"622110",GENERAL MEDICAL AND SURGICAL HOSPITALS,https://data.chhs.ca.gov/dataset/3b5b80e8-6b8d-4715-b3c0-2699af6e72e5/resource/098bbc36-044d-441f-9442-1f4db4d8aaa0/download/healthcare_facility_locations.xlsx,2021/10/01,IMAGERY,2014/02/10,NOT AVAILABLE,"030000114",BARTON HEALTHCARE SYSTEM,"6",NON-PROFIT,"-999","63",LEVEL III,Y,2,551,3
"398","398","402","9795203",DAMERON HOSPITAL,525 W ACACIA STREET,STOCKTON,CA,"95203","2405",(209) 625-6567,GENERAL ACUTE CARE,OPEN,"202",SAN JOAQUIN,"6077",USA,37.96167326,-121.30098296,"622110",GENERAL MEDICAL AND SURGICAL HOSPITALS,https://data.chhs.ca.gov/dataset/3b5b80e8-6b8d-4715-b3c0-2699af6e72e5/resource/098bbc36-044d-441f-9442-1f4db4d8aaa0/download/healthcare_facility_locations.xlsx,2021/10/01,IMAGERY/OTHER,2014/02/10,NOT AVAILABLE,"030000117",DAMERON HOSPITAL ASSOCIATION,"6",NON-PROFIT,"-999","202",NOT AVAILABLE,N,5,5637,6
"399","399","403","10295336",DOCTORS HOSPITAL OF MANTECA,1205 E NORTH STREET,MANTECA,CA,"95336","4932",(209) 239-8361,GENERAL ACUTE CARE,OPEN,"73",SAN JOAQUIN,"6077",USA,37.80158302,-121.19691688,"622110",GENERAL MEDICAL AND SURGICAL HOSPITALS,https://data.chhs.ca.gov/dataset/3b5b80e8-6b8d-4715-b3c0-2699af6e72e5/resource/098bbc36-044d-441f-9442-1f4db4d8aaa0/download/healthcare_facility_locations.xlsx,2021/10/01,IMAGERY,2014/02/10,NOT AVAILABLE,"030000118","DOCTORS HOSPITAL OF MANTECA, INC.","6",PROPRIETARY,"-999","73",NOT AVAILABLE,N,5,5637,6
"400","400","404","27895249",MARK TWAIN MEDICAL CENTER,768 MOUNTAIN RANCH ROAD,SAN ANDREAS,CA,"95249","9707",(209) 754-3521,CRITICAL ACCESS,OPEN,"25",CALAVERAS,"6009",USA,38.19005959,-120.6705756,"622110",GENERAL MEDICAL AND SURGICAL HOSPITALS,https://data.chhs.ca.gov/dataset/3b5b80e8-6b8d-4715-b3c0-2699af6e72e5/resource/098bbc36-044d-441f-9442-1f4db4d8aaa0/download/healthcare_facility_locations.xlsx,2021/10/01,IMAGERY/OTHER,2014/02/10,NOT AVAILABLE,"030000120",MARK TWAIN MEDICAL CENTER,"6",NON-PROFIT,"-999","25",NOT AVAILABLE,Y,5,5637,6
"401","401","405","27995667",MARSHALL MEDICAL CENTER,1100 MARSHALL WAY,PLACERVILLE,CA,"95667","6533",(530) 626-2604,GENERAL ACUTE CARE,OPEN,"111",EL DORADO,"6017",USA,38.72494785,-120.791412,"622110",GENERAL MEDICAL AND SURGICAL HOSPITALS,https://data.chhs.ca.gov/dataset/3b5b80e8-6b8d-4715-b3c0-2699af6e72e5/resource/098bbc36-044d-441f-9442-1f4db4d8aaa0/download/healthcare_facility_locations.xlsx,2021/10/01,IMAGERY,2014/02/10,NOT AVAILABLE,"030000121",MARSHALL MEDICAL CENTER,"6",NON-PROFIT,"-999","111",LEVEL III,N,2,551,3
"402","402","406","10495350",DOCTORS MEDICAL CENTER,1441 FLORIDA AVE,MODESTO,CA,"95350","4404",(209) 578-1211,GENERAL ACUTE CARE,OPEN,"394",STANISLAUS,"6099",USA,37.6651476,-120.99702069,"622110",GENERAL MEDICAL AND SURGICAL HOSPITALS,https://data.chhs.ca.gov/dataset/3b5b80e8-6b8d-4715-b3c0-2699af6e72e5/resource/098bbc36-044d-441f-9442-1f4db4d8aaa0/download/healthcare_facility_locations.xlsx,2021/10/01,IMAGERY,2014/02/10,NOT AVAILABLE,"030000122","DOCTORS MEDICAL CENTER OF MODESTO, INC.","6",PROPRIETARY,"-999","394",LEVEL II,Y,1,369,2
"403","403","407","28295355",MEMORIAL MEDICAL CENTER,1700 COFFEE RD,MODESTO,CA,"95355","2803",(209) 572-7134,GENERAL ACUTE CARE,OPEN,"419",STANISLAUS,"6099",USA,37.66832477,-120.97416039,"622110",GENERAL MEDICAL AND SURGICAL HOSPITALS,https://data.chhs.ca.gov/dataset/3b5b80e8-6b8d-4715-b3c0-2699af6e72e5/resource/098bbc36-044d-441f-9442-1f4db4d8aaa0/download/healthcare_facility_locations.xlsx,2021/10/01,IMAGERY,2014/02/10,NOT AVAILABLE,"030000123",SUTTER VALLEY HOSPITALS,"6",NON-PROFIT,"-999","419",LEVEL II,Y,1,369,2
"404","404","408","28795819",MERCY GENERAL HOSPITAL,4001 J STREET,SACRAMENTO,CA,"95819","3626",(916) 453-4453,GENERAL ACUTE CARE,OPEN,"313",SACRAMENTO,"6067",USA,38.57006128,-121.45246843,"622110",GENERAL MEDICAL AND SURGICAL HOSPITALS,https://data.chhs.ca.gov/dataset/3b5b80e8-6b8d-4715-b3c0-2699af6e72e5/resource/098bbc36-044d-441f-9442-1f4db4d8aaa0/download/healthcare_facility_locations.xlsx,2021/10/01,IMAGERY,2014/02/10,NOT AVAILABLE,"030000124",DIGNITY HEALTH,"6",NON-PROFIT,"-999","313",NOT AVAILABLE,N,5,5637,6
"405","405","409","12295380",EMANUEL MEDICAL CENTER,825 DELBON AVE,TURLOCK,CA,"95382","2016",(209) 667-4200,GENERAL ACUTE CARE,OPEN,"209",STANISLAUS,"6099",USA,37.51231404,-120.83915092,"622110",GENERAL MEDICAL AND SURGICAL HOSPITALS,https://data.chhs.ca.gov/dataset/3b5b80e8-6b8d-4715-b3c0-2699af6e72e5/resource/098bbc36-044d-441f-9442-1f4db4d8aaa0/download/healthcare_facility_locations.xlsx,2021/10/01,IMAGERY/OTHER,2014/02/10,NOT AVAILABLE,"030000125","DOCTOR'S MEDICAL CENTER OF MODESTO, INC.","6",PROPRIETARY,"-999","209",NOT AVAILABLE,Y,5,5637,6
"406","406","410","29395608",MERCY SAN JUAN MEDICAL CENTER,6501 COYLE AVENUE,CARMICHAEL,CA,"95608","0306",(916) 537-5000,GENERAL ACUTE CARE,OPEN,"384",SACRAMENTO,"6067",USA,38.66982929,-121.31410819,"622110",GENERAL MEDICAL AND SURGICAL HOSPITALS,https://data.chhs.ca.gov/dataset/3b5b80e8-6b8d-4715-b3c0-2699af6e72e5/resource/098bbc36-044d-441f-9442-1f4db4d8aaa0/download/healthcare_facility_locations.xlsx,2021/10/01,IMAGERY,2014/02/10,NOT AVAILABLE,"030000127",DIGNITY HEALTH,"6",NON-PROFIT,"-999","384",LEVEL II,Y,1,369,2
"407","407","411","70695354",CENTRAL VALLEY SPECIALTY HOSPITAL,730 17TH ST,MODESTO,CA,"95354","1209",(209) 248-7700,GENERAL ACUTE CARE,OPEN,"96",STANISLAUS,"6099",USA,37.64356628,-120.99090489,"622310",SPECIALTY (EXCEPT PSYCHIATRIC AND SUBSTANCE ABUSE) HOSPITALS,https://data.chhs.ca.gov/dataset/3b5b80e8-6b8d-4715-b3c0-2699af6e72e5/resource/098bbc36-044d-441f-9442-1f4db4d8aaa0/download/healthcare_facility_locations.xlsx,2021/10/01,IMAGERY/OTHER,2015/01/13,NOT AVAILABLE,"030000129","CENTRAL VALLEY SPECIALTY HOSPITAL, INC.","6",PROPRIETARY,"-999","96",NOT AVAILABLE,N,5,5637,6
"408","408","412","19995825",KAISER FOUNDATION HOSPITAL - SACRAMENTO,2025 MORSE AVENUE,SACRAMENTO,CA,"95825","2115",(916) 973-4328,GENERAL ACUTE CARE,OPEN,"287",SACRAMENTO,"6067",USA,38.60179775,-121.39314403,"622110",GENERAL MEDICAL AND SURGICAL HOSPITALS,https://data.chhs.ca.gov/dataset/3b5b80e8-6b8d-4715-b3c0-2699af6e72e5/resource/098bbc36-044d-441f-9442-1f4db4d8aaa0/download/healthcare_facility_locations.xlsx,2021/10/01,IMAGERY,2014/02/10,NOT AVAILABLE,"030000130",KAISER FOUNDATION HOSPITALS,"6",NON-PROFIT,"-999","287",NOT AVAILABLE,N,5,5637,6
"409","409","413","32695361",OAK VALLEY HOSPITAL DISTRICT,350 S OAK AVE,OAKDALE,CA,"95361","3519",(209) 847-3011,GENERAL ACUTE CARE,OPEN,"35",STANISLAUS,"6099",USA,37.75761627,-120.86099657,"622110",GENERAL MEDICAL AND SURGICAL HOSPITALS,https://data.chhs.ca.gov/dataset/3b5b80e8-6b8d-4715-b3c0-2699af6e72e5/resource/098bbc36-044d-441f-9442-1f4db4d8aaa0/download/healthcare_facility_locations.xlsx,2021/10/01,IMAGERY/OTHER,2014/02/10,NOT AVAILABLE,"030000131",OAK VALLEY HOSPITAL DISTRICT,"6",GOVERNMENT - DISTRICT/AUTHORITY,"-999","35",NOT AVAILABLE,Y,5,5637,6
"410","410","414","20795823",KAISER FOUNDATION HOSPITAL - SOUTH SACRAMENTO,6600 BRUCEVILLE ROAD,SACRAMENTO,CA,"95823","4671",(916) 688-2718,GENERAL ACUTE CARE,OPEN,"241",SACRAMENTO,"6067",USA,38.47063789,-121.4225467,"622110",GENERAL MEDICAL AND SURGICAL HOSPITALS,https://data.chhs.ca.gov/dataset/3b5b80e8-6b8d-4715-b3c0-2699af6e72e5/resource/098bbc36-044d-441f-9442-1f4db4d8aaa0/download/healthcare_facility_locations.xlsx,2021/10/01,IMAGERY,2014/02/10,NOT AVAILABLE,"030000133",KAISER FOUNDATION HOSPITALS,"6",NON-PROFIT,"-999","241",LEVEL II,Y,1,369,2
"411","411","415","48495661",SUTTER ROSEVILLE MEDICAL CENTER,1 MEDICAL PLAZA DR,ROSEVILLE,CA,"95661","3037",(916) 781-1000,GENERAL ACUTE CARE,OPEN,"382",PLACER,"6061",USA,38.76616,-121.24930864,"622110",GENERAL MEDICAL AND SURGICAL HOSPITALS,https://data.chhs.ca.gov/dataset/3b5b80e8-6b8d-4715-b3c0-2699af6e72e5/resource/098bbc36-044d-441f-9442-1f4db4d8aaa0/download/healthcare_facility_locations.xlsx,2021/10/01,IMAGERY,2014/02/10,NOT AVAILABLE,"030000134",SUTTER VALLEY HOSPITALS,"6",NON-PROFIT,"-999","382",LEVEL II,Y,1,369,2
"412","412","416","39595231",SAN JOAQUIN GENERAL HOSPITAL,500 W HOSPITAL ROAD,FRENCH CAMP,CA,"95231","9693",(209) 468-6010,GENERAL ACUTE CARE,OPEN,"152",SAN JOAQUIN,"6077",USA,37.88672574,-121.2826766,"622110",GENERAL MEDICAL AND SURGICAL HOSPITALS,https://data.chhs.ca.gov/dataset/3b5b80e8-6b8d-4715-b3c0-2699af6e72e5/resource/098bbc36-044d-441f-9442-1f4db4d8aaa0/download/healthcare_facility_locations.xlsx,2021/10/01,IMAGERY,2014/02/10,NOT AVAILABLE,"030000135",COUNTY OF SAN JOAQUIN,"6",GOVERNMENT - LOCAL,"-999","152",LEVEL II,Y,1,369,2
"413","413","417","25495240",ADVENTIST HEALTH LODI MEMORIAL,975 S FAIRMONT AVENUE,LODI,CA,"95240","5118",(209) 339-7884,GENERAL ACUTE CARE,OPEN,"194",SAN JOAQUIN,"6077",USA,38.12132334,-121.28681843,"622110",GENERAL MEDICAL AND SURGICAL HOSPITALS,https://data.chhs.ca.gov/dataset/3b5b80e8-6b8d-4715-b3c0-2699af6e72e5/resource/098bbc36-044d-441f-9442-1f4db4d8aaa0/download/healthcare_facility_locations.xlsx,2021/10/01,IMAGERY/OTHER,2014/02/10,NOT AVAILABLE,"030000139","LODI MEMORIAL HOSPITAL ASSOCIATION, INC.","6",NON-PROFIT,"-999","194",NOT AVAILABLE,Y,5,5637,6
"414","414","418","48795376",SUTTER TRACY COMMUNITY HOSPITAL,1420 N TRACY BOULEVARD,TRACY,CA,"95376","3451",(209) 835-1500,GENERAL ACUTE CARE,OPEN,"77",SAN JOAQUIN,"6077",USA,37.74421852,-121.43392974,"622110",GENERAL MEDICAL AND SURGICAL HOSPITALS,https://data.chhs.ca.gov/dataset/3b5b80e8-6b8d-4715-b3c0-2699af6e72e5/resource/098bbc36-044d-441f-9442-1f4db4d8aaa0/download/healthcare_facility_locations.xlsx,2021/10/01,IMAGERY/OTHER,2014/02/10,NOT AVAILABLE,"030000141",SUTTER VALLEY HOSPITALS,"6",NON-PROFIT,"-999","77",NOT AVAILABLE,N,5,5637,6
"415","415","419","46095204",ST. JOSEPH'S MEDICAL CENTER OF STOCKTON,1800 N CALIFORNIA STREET,STOCKTON,CA,"95204","6019",(209) 943-2000,GENERAL ACUTE CARE,OPEN,"355",SAN JOAQUIN,"6077",USA,37.97046719,-121.28818276,"622110",GENERAL MEDICAL AND SURGICAL HOSPITALS,https://data.chhs.ca.gov/dataset/3b5b80e8-6b8d-4715-b3c0-2699af6e72e5/resource/098bbc36-044d-441f-9442-1f4db4d8aaa0/download/healthcare_facility_locations.xlsx,2021/10/01,IMAGERY,2014/02/10,NOT AVAILABLE,"030000143","PORT CITY OPERATING COMPANY, LLC","6",PROPRIETARY,"-999","355",NOT AVAILABLE,Y,5,5637,6
"416","416","420","53195695",WOODLAND MEMORIAL HOSPITAL,1325 COTTONWOOD STREET,WOODLAND,CA,"95695","5131",(530) 669-5316,GENERAL ACUTE CARE,OPEN,"74",YOLO,"6113",USA,38.66392502,-121.79214525,"622110",GENERAL MEDICAL AND SURGICAL HOSPITALS,https://data.chhs.ca.gov/dataset/3b5b80e8-6b8d-4715-b3c0-2699af6e72e5/resource/098bbc36-044d-441f-9442-1f4db4d8aaa0/download/healthcare_facility_locations.xlsx,2021/10/01,IMAGERY/OTHER,2014/02/10,NOT AVAILABLE,"030000146",DIGNITY COMMUNITY CARE,"6",NON-PROFIT,"-999","74",NOT AVAILABLE,N,5,5637,6
"417","417","421","47695616",SUTTER DAVIS HOSPITAL,2000 SUTTER PLACE,DAVIS,CA,"95616","6201",(530) 757-5108,GENERAL ACUTE CARE,OPEN,"48",YOLO,"6113",USA,38.56250391,-121.77074002,"622110",GENERAL MEDICAL AND SURGICAL HOSPITALS,https://data.chhs.ca.gov/dataset/3b5b80e8-6b8d-4715-b3c0-2699af6e72e5/resource/098bbc36-044d-441f-9442-1f4db4d8aaa0/download/healthcare_facility_locations.xlsx,2021/10/01,IMAGERY,2014/02/10,NOT AVAILABLE,"030000149",SUTTER VALLEY HOSPITALS,"6",NON-PROFIT,"-999","48",NOT AVAILABLE,N,5,5637,6
"418","418","422","47895816",SUTTER MEDICAL CENTER - SACRAMENTO,2825 CAPITOL AVENUE,SACRAMENTO,CA,"95816","5616",(916) 887-0000,GENERAL ACUTE CARE,OPEN,"523",SACRAMENTO,"6067",USA,38.57196715,-121.46922481,"622110",GENERAL MEDICAL AND SURGICAL HOSPITALS,https://data.chhs.ca.gov/dataset/3b5b80e8-6b8d-4715-b3c0-2699af6e72e5/resource/098bbc36-044d-441f-9442-1f4db4d8aaa0/download/healthcare_facility_locations.xlsx,2021/10/01,IMAGERY,2014/02/10,NOT AVAILABLE,"030000151",SUTTER VALLEY HOSPITALS,"6",NON-PROFIT,"-999","523",NOT AVAILABLE,Y,5,5637,6
"419","419","423","196784326",WOODLAND MEMORIAL HOSPITAL D/P APH,1325 COTTONWOOD STREET,WOODLAND,CA,"95695","5131",(530) 999-9999,PSYCHIATRIC,OPEN,"31",YOLO,"6113",USA,38.6641007,-121.7920967,"622210",PSYCHIATRIC AND SUBSTANCE ABUSE HOSPITALS,https://data.chhs.ca.gov/dataset/3b5b80e8-6b8d-4715-b3c0-2699af6e72e5/resource/098bbc36-044d-441f-9442-1f4db4d8aaa0/download/healthcare_facility_locations.xlsx,2021/10/01,IMAGERY/OTHER,2022/02/28,NOT AVAILABLE,"030000301",DIGNITY COMMUNITY CARE,"6",NON-PROFIT,"-999","31",NOT AVAILABLE,N,5,5637,6
"420","420","424","43395823","SIERRA VISTA HOSPITAL, INC",8001 BRUCEVILLE ROAD,SACRAMENTO,CA,"95823","2329",(916) 288-0325,PSYCHIATRIC,OPEN,"171",SACRAMENTO,"6067",USA,38.46678028,-121.41711167,"622210",PSYCHIATRIC AND SUBSTANCE ABUSE HOSPITALS,https://data.chhs.ca.gov/dataset/3b5b80e8-6b8d-4715-b3c0-2699af6e72e5/resource/098bbc36-044d-441f-9442-1f4db4d8aaa0/download/healthcare_facility_locations.xlsx,2021/10/01,IMAGERY,2014/02/10,NOT AVAILABLE,"030000320","BHC SIERRA VISTA HOSPITAL, INC.","6",PROPRIETARY,"-999","171",NOT AVAILABLE,N,5,5637,6
"421","421","425","44095370",ADVENTIST HEALTH SONORA,179 FAIRVIEW LANE,SONORA,CA,"95370","4809",(209) 532-3161,GENERAL ACUTE CARE,OPEN,"12",TUOLUMNE,"6109",USA,37.9796874,-120.39080129,"622110",GENERAL MEDICAL AND SURGICAL HOSPITALS,https://data.chhs.ca.gov/dataset/3b5b80e8-6b8d-4715-b3c0-2699af6e72e5/resource/098bbc36-044d-441f-9442-1f4db4d8aaa0/download/healthcare_facility_locations.xlsx,2021/10/01,IMAGERY,2014/02/10,NOT AVAILABLE,"030000365",SONORA COMMUNITY HOSPITAL,"6",NON-PROFIT,"-999","12",NOT AVAILABLE,N,5,5637,6
"422","422","426","47495826",SUTTER CENTER FOR PSYCHIATRY,7700 FOLSOM BLVD,SACRAMENTO,CA,"95826","2608",(916) 386-3000,PSYCHIATRIC,OPEN,"73",SACRAMENTO,"6067",USA,38.54992593,-121.41461678,"622210",PSYCHIATRIC AND SUBSTANCE ABUSE HOSPITALS,https://data.chhs.ca.gov/dataset/3b5b80e8-6b8d-4715-b3c0-2699af6e72e5/resource/098bbc36-044d-441f-9442-1f4db4d8aaa0/download/healthcare_facility_locations.xlsx,2021/10/01,IMAGERY,2014/02/10,NOT AVAILABLE,"030000796",SUTTER VALLEY HOSPITALS,"6",NON-PROFIT,"-999","73",NOT AVAILABLE,N,5,5637,6
"423","423","427","16595841",HERITAGE OAKS HOSPITAL,4250 AUBURN BOULEVARD,SACRAMENTO,CA,"95841","4100",(916) 480-5106,PSYCHIATRIC,OPEN,"125",SACRAMENTO,"6067",USA,38.64339455,-121.36468093,"622210",PSYCHIATRIC AND SUBSTANCE ABUSE HOSPITALS,https://data.chhs.ca.gov/dataset/3b5b80e8-6b8d-4715-b3c0-2699af6e72e5/resource/098bbc36-044d-441f-9442-1f4db4d8aaa0/download/healthcare_facility_locations.xlsx,2021/10/01,IMAGERY/OTHER,2014/02/10,NOT AVAILABLE,"030000822","BHC HERITAGE OAKS HOSPITAL, INC.","6",PROPRIETARY,"-999","125",NOT AVAILABLE,N,5,5637,6
"424","424","428","45995204",ST. JOSEPH'S BEHAVIORAL HEALTH CENTER,2510 N CALIFORNIA STREET,STOCKTON,CA,"95204","5502",(209) 461-2020,PSYCHIATRIC,OPEN,"35",SAN JOAQUIN,"6077",USA,37.9765963,-121.29107093,"622210",PSYCHIATRIC AND SUBSTANCE ABUSE HOSPITALS,https://data.chhs.ca.gov/dataset/3b5b80e8-6b8d-4715-b3c0-2699af6e72e5/resource/098bbc36-044d-441f-9442-1f4db4d8aaa0/download/healthcare_facility_locations.xlsx,2021/10/01,IMAGERY/OTHER,2014/02/10,NOT AVAILABLE,"030000862","PORT CITY OPERATING COMPANY, LLC","6",PROPRIETARY,"-999","35",NOT AVAILABLE,N,5,5637,6
"425","425","429","28995630",MERCY HOSPITAL OF FOLSOM,1650 CREEKSIDE DRIVE,FOLSOM,CA,"95630","3400",(916) 983-7400,GENERAL ACUTE CARE,OPEN,"106",SACRAMENTO,"6067",USA,38.67031491,-121.14567691,"622110",GENERAL MEDICAL AND SURGICAL HOSPITALS,https://data.chhs.ca.gov/dataset/3b5b80e8-6b8d-4715-b3c0-2699af6e72e5/resource/098bbc36-044d-441f-9442-1f4db4d8aaa0/download/healthcare_facility_locations.xlsx,2021/10/01,IMAGERY,2014/02/10,NOT AVAILABLE,"030000901",DIGNITY HEALTH,"6",NON-PROFIT,"-999","106",NOT AVAILABLE,Y,5,5637,6
"426","426","430","23195630",VIBRA HOSPITAL OF SACRAMENTO,330 MONTROSE DRIVE,FOLSOM,CA,"95630","2720",(916) 351-8846,GENERAL ACUTE CARE,OPEN,"58",SACRAMENTO,"6067",USA,38.68118058,-121.1582091,"622110",GENERAL MEDICAL AND SURGICAL HOSPITALS,https://data.chhs.ca.gov/dataset/3b5b80e8-6b8d-4715-b3c0-2699af6e72e5/resource/098bbc36-044d-441f-9442-1f4db4d8aaa0/download/healthcare_facility_locations.xlsx,2021/10/01,IMAGERY/OTHER,2014/02/10,NOT AVAILABLE,"030000907","VIBRA HOSPITAL OF SACRAMENTO, LLC","6",PROPRIETARY,"-999","58",NOT AVAILABLE,N,5,5637,6
"427","427","431","21295336",KAISER FOUNDATION HOSPITAL MANTECA,1777 W YOSEMITE AVENUE,MANTECA,CA,"95337","5130",(209) 626-9369,GENERAL ACUTE CARE,OPEN,"61",SAN JOAQUIN,"6077",USA,37.79811659,-121.24588639,"622110",GENERAL MEDICAL AND SURGICAL HOSPITALS,https://data.chhs.ca.gov/dataset/3b5b80e8-6b8d-4715-b3c0-2699af6e72e5/resource/098bbc36-044d-441f-9442-1f4db4d8aaa0/download/healthcare_facility_locations.xlsx,2021/10/01,IMAGERY,2014/02/10,NOT AVAILABLE,"030000973",KAISER FOUNDATION HOSPITALS,"6",NON-PROFIT,"-999","61",NOT AVAILABLE,Y,5,5637,6
"428","428","432","19895661",KAISER FOUNDATION HOSPITAL - ROSEVILLE,1600 EUREKA ROAD,ROSEVILLE,CA,"95661","3027",(916) 784-4000,GENERAL ACUTE CARE,OPEN,"352",PLACER,"6061",USA,38.74680587,-121.2509392,"622110",GENERAL MEDICAL AND SURGICAL HOSPITALS,https://data.chhs.ca.gov/dataset/3b5b80e8-6b8d-4715-b3c0-2699af6e72e5/resource/098bbc36-044d-441f-9442-1f4db4d8aaa0/download/healthcare_facility_locations.xlsx,2021/10/01,IMAGERY,2014/02/10,NOT AVAILABLE,"030001370",KAISER FOUNDATION HOSPITALS,"6",NON-PROFIT,"-999","352",NOT AVAILABLE,N,5,5637,6
"429","429","433","43095817",SHRINERS HOSPITALS FOR CHILDREN NORTHERN CALIFORNIA,2425 STOCKTON BOULEVARD,SACRAMENTO,CA,"95817","2215",(916) 453-2000,CHILDREN,OPEN,"80",SACRAMENTO,"6067",USA,38.55296329,-121.45533004,"622110",GENERAL MEDICAL AND SURGICAL HOSPITALS,https://data.chhs.ca.gov/dataset/3b5b80e8-6b8d-4715-b3c0-2699af6e72e5/resource/098bbc36-044d-441f-9442-1f4db4d8aaa0/download/healthcare_facility_locations.xlsx,2021/10/01,IMAGERY,2014/03/12,NOT AVAILABLE,"030001506",SHRINERS HOSPITALS FOR CHILDREN,"6",NON-PROFIT,"-999","80",NOT AVAILABLE,N,5,5637,6
"430","430","434","71495355",DOCTORS MEDICAL CENTER - BEHAVIORAL HEALTH DEPARTMENT,1501 CLAUS RD,MODESTO,CA,"95355","9711",(209) 557-6360,PSYCHIATRIC,OPEN,"67",STANISLAUS,"6099",USA,37.66582401,-120.92223193,"622110",GENERAL MEDICAL AND SURGICAL HOSPITALS,https://data.chhs.ca.gov/dataset/3b5b80e8-6b8d-4715-b3c0-2699af6e72e5/resource/098bbc36-044d-441f-9442-1f4db4d8aaa0/download/healthcare_facility_locations.xlsx,2021/10/01,IMAGERY/OTHER,2015/01/14,NOT AVAILABLE,"030001568","DOCTORS MEDICAL CENTER OF MODESTO, INC.","6",PROPRIETARY,"-999","67",NOT AVAILABLE,N,5,5637,6
"431","431","435","46995355",STANISLAUS SURGICAL HOSPITAL,1421 OAKDALE RD,MODESTO,CA,"95355","3356",(209) 572-2700,GENERAL ACUTE CARE,OPEN,"23",STANISLAUS,"6099",USA,37.66480107,-120.95849992,"622110",GENERAL MEDICAL AND SURGICAL HOSPITALS,https://data.chhs.ca.gov/dataset/3b5b80e8-6b8d-4715-b3c0-2699af6e72e5/resource/098bbc36-044d-441f-9442-1f4db4d8aaa0/download/healthcare_facility_locations.xlsx,2021/10/01,IMAGERY,2014/02/10,NOT AVAILABLE,"030001661","STANISLAUS SURGICAL HOSPITAL, LLC","6",PROPRIETARY,"-999","23",NOT AVAILABLE,N,5,5637,6
"432","432","436","44195370",ADVENTIST HEALTH SONORA,1000 GREENLEY ROAD,SONORA,CA,"95370","5200",(209) 536-5000,GENERAL ACUTE CARE,OPEN,"72",TUOLUMNE,"6109",USA,37.97723023,-120.37085046,"622110",GENERAL MEDICAL AND SURGICAL HOSPITALS,https://data.chhs.ca.gov/dataset/3b5b80e8-6b8d-4715-b3c0-2699af6e72e5/resource/098bbc36-044d-441f-9442-1f4db4d8aaa0/download/healthcare_facility_locations.xlsx,2021/10/01,IMAGERY,2014/02/10,NOT AVAILABLE,"030001799",SONORA COMMUNITY HOSPITAL,"6",NON-PROFIT,"-999","72",NOT AVAILABLE,Y,5,5637,6
"433","433","437","7193612",CLOVIS COMMUNITY MEDICAL CENTER,2755 HERNDON AVE,CLOVIS,CA,"93611","6800",(559) 324-4714,GENERAL ACUTE CARE,OPEN,"208",FRESNO,"6019",USA,36.8390899,-119.66047665,"622110",GENERAL MEDICAL AND SURGICAL HOSPITALS,https://data.chhs.ca.gov/dataset/3b5b80e8-6b8d-4715-b3c0-2699af6e72e5/resource/098bbc36-044d-441f-9442-1f4db4d8aaa0/download/healthcare_facility_locations.xlsx,2021/10/01,IMAGERY,2014/02/10,NOT AVAILABLE,"040000095",FRESNO COMMUNITY HOSPITAL AND MEDICAL CENTER,"6",NON-PROFIT,"-999","208",NOT AVAILABLE,Y,5,5637,6
"434","434","438","7293210",COALINGA REGIONAL MEDICAL CENTER,1191 PHELPS AVE,COALINGA,CA,"93210","9609",(559) 935-6400,GENERAL ACUTE CARE,OPEN,"24",FRESNO,"6019",USA,36.15247112,-120.34068403,"622110",GENERAL MEDICAL AND SURGICAL HOSPITALS,https://data.chhs.ca.gov/dataset/3b5b80e8-6b8d-4715-b3c0-2699af6e72e5/resource/098bbc36-044d-441f-9442-1f4db4d8aaa0/download/healthcare_facility_locations.xlsx,2021/10/01,IMAGERY,2014/02/10,NOT AVAILABLE,"040000096","COALINGA MEDICAL CENTER, LLC","6",PROPRIETARY,"-999","24",NOT AVAILABLE,Y,5,5637,6
"435","435","439","8693721",COMMUNITY REGIONAL MEDICAL CENTER,2823 FRESNO ST,FRESNO,CA,"93721","1324",(559) 459-2962,GENERAL ACUTE CARE,OPEN,"685",FRESNO,"6019",USA,36.74389038,-119.7852398,"622110",GENERAL MEDICAL AND SURGICAL HOSPITALS,https://data.chhs.ca.gov/dataset/3b5b80e8-6b8d-4715-b3c0-2699af6e72e5/resource/098bbc36-044d-441f-9442-1f4db4d8aaa0/download/healthcare_facility_locations.xlsx,2021/10/01,IMAGERY,2014/02/10,NOT AVAILABLE,"040000101",FRESNO COMMUNITY HOSPITAL AND MEDICAL CENTER,"6",NON-PROFIT,"-999","685",LEVEL I,Y,0,426,1
"436","436","440","17795338",JOHN C. FREMONT HEALTHCARE DISTRICT,5189 HOSPITAL RD,MARIPOSA,CA,"95338","9524",(209) 966-3631,CRITICAL ACCESS,OPEN,"18",MARIPOSA,"6043",USA,37.5001239,-119.97731444,"622110",GENERAL MEDICAL AND SURGICAL HOSPITALS,https://data.chhs.ca.gov/dataset/3b5b80e8-6b8d-4715-b3c0-2699af6e72e5/resource/098bbc36-044d-441f-9442-1f4db4d8aaa0/download/healthcare_facility_locations.xlsx,2021/10/01,IMAGERY/OTHER,2014/02/10,NOT AVAILABLE,"040000105",JOHN C. FREMONT HEALTHCARE DISTRICT,"6",GOVERNMENT - DISTRICT/AUTHORITY,"-999","18",NOT AVAILABLE,Y,5,5637,6
"437","437","441","28193635",MEMORIAL HOSPITAL LOS BANOS,520 W I ST,LOS BANOS,CA,"93635","3419",(209) 826-0591,GENERAL ACUTE CARE,OPEN,"38",MERCED,"6047",USA,37.06409769,-120.85918961,"622110",GENERAL MEDICAL AND SURGICAL HOSPITALS,https://data.chhs.ca.gov/dataset/3b5b80e8-6b8d-4715-b3c0-2699af6e72e5/resource/098bbc36-044d-441f-9442-1f4db4d8aaa0/download/healthcare_facility_locations.xlsx,2021/10/01,IMAGERY,2014/02/10,NOT AVAILABLE,"040000110",SUTTER VALLEY HOSPITALS,"6",NON-PROFIT,"-999","38",NOT AVAILABLE,Y,5,5637,6
"438","438","442","27293637",MADERA COMMUNITY HOSPITAL,1250 E ALMOND AVE,MADERA,CA,"93637","5606",(559) 675-5501,GENERAL ACUTE CARE,OPEN,"106",MADERA,"6039",USA,36.94381212,-120.0446582,"622110",GENERAL MEDICAL AND SURGICAL HOSPITALS,https://data.chhs.ca.gov/dataset/3b5b80e8-6b8d-4715-b3c0-2699af6e72e5/resource/098bbc36-044d-441f-9442-1f4db4d8aaa0/download/healthcare_facility_locations.xlsx,2021/10/01,IMAGERY,2014/02/10,NOT AVAILABLE,"040000111",MADERA COMMUNITY HOSPITAL,"6",NON-PROFIT,"-999","106",NOT AVAILABLE,N,5,5637,6
"439","439","443","29095340",MERCY MEDICAL CENTER,333 MERCY AVE,MERCED,CA,"95340","8319",(209) 564-5000,GENERAL ACUTE CARE,OPEN,"186",MERCED,"6047",USA,37.33985566,-120.46752827,"622110",GENERAL MEDICAL AND SURGICAL HOSPITALS,https://data.chhs.ca.gov/dataset/3b5b80e8-6b8d-4715-b3c0-2699af6e72e5/resource/098bbc36-044d-441f-9442-1f4db4d8aaa0/download/healthcare_facility_locations.xlsx,2021/10/01,IMAGERY,2014/02/10,NOT AVAILABLE,"040000113",DIGNITY HEALTH,"6",NON-PROFIT,"-999","186",NOT AVAILABLE,Y,5,5637,6
"440","440","444","41493662",ADVENTIST HEALTH SELMA,1141 ROSE AVE,SELMA,CA,"93662","3241",(559) 891-1000,GENERAL ACUTE CARE,OPEN,"62",FRESNO,"6019",USA,36.56786704,-119.59866736,"622110",GENERAL MEDICAL AND SURGICAL HOSPITALS,https://data.chhs.ca.gov/dataset/3b5b80e8-6b8d-4715-b3c0-2699af6e72e5/resource/098bbc36-044d-441f-9442-1f4db4d8aaa0/download/healthcare_facility_locations.xlsx,2021/10/01,IMAGERY,2014/02/10,NOT AVAILABLE,"040000122",HANFORD COMMUNITY HOSPITAL,"6",NON-PROFIT,"-999","62",NOT AVAILABLE,N,5,5637,6
"441","441","445","293654",ADVENTIST HEALTH REEDLEY,372 W CYPRESS AVE,REEDLEY,CA,"93654","2113",(559) 537-2029,GENERAL ACUTE CARE,OPEN,"49",FRESNO,"6019",USA,36.60826833,-119.45214935,"622110",GENERAL MEDICAL AND SURGICAL HOSPITALS,https://data.chhs.ca.gov/dataset/3b5b80e8-6b8d-4715-b3c0-2699af6e72e5/resource/098bbc36-044d-441f-9442-1f4db4d8aaa0/download/healthcare_facility_locations.xlsx,2021/10/01,IMAGERY/OTHER,2014/02/10,NOT AVAILABLE,"040000124",REEDLEY COMMUNITY HOSPITAL,"6",NON-PROFIT,"-999","49",NOT AVAILABLE,Y,5,5637,6
"442","442","446","44693720",SAINT AGNES MEDICAL CENTER,1303 E HERNDON AVE,FRESNO,CA,"93720","3309",(559) 450-2198,GENERAL ACUTE CARE,OPEN,"436",FRESNO,"6019",USA,36.83508748,-119.76576285,"622110",GENERAL MEDICAL AND SURGICAL HOSPITALS,https://data.chhs.ca.gov/dataset/3b5b80e8-6b8d-4715-b3c0-2699af6e72e5/resource/098bbc36-044d-441f-9442-1f4db4d8aaa0/download/healthcare_facility_locations.xlsx,2021/10/01,IMAGERY,2014/02/10,NOT AVAILABLE,"040000126",SAINT AGNES MEDICAL CENTER,"6",NON-PROFIT,"-999","436",NOT AVAILABLE,Y,5,5637,6
"443","443","447","6193638",VALLEY CHILDREN'S HOSPITAL,9300 VALLEY CHILDRENS PLACE,MADERA,CA,"93636","8761",(559) 353-3000,CHILDREN,OPEN,"358",MADERA,"6039",USA,36.88404783,-119.80024241,"622110","CHILDREN'S HOSPITALS, GENERAL",https://data.chhs.ca.gov/dataset/3b5b80e8-6b8d-4715-b3c0-2699af6e72e5/resource/098bbc36-044d-441f-9442-1f4db4d8aaa0/download/healthcare_facility_locations.xlsx,2021/10/01,IMAGERY/OTHER,2014/02/10,NOT AVAILABLE,"040000129",VALLEY CHILDREN'S HOSPITAL,"6",NON-PROFIT,"-999","358",LEVEL II PEDIATRIC,Y,0,0,0
"444","444","448","14093710",FRESNO SURGICAL HOSPITAL,6125 N FRESNO ST,FRESNO,CA,"93710","5207",(559) 431-8000,GENERAL ACUTE CARE,OPEN,"27",FRESNO,"6019",USA,36.82491409,-119.78216158,"622110",GENERAL MEDICAL AND SURGICAL HOSPITALS,https://data.chhs.ca.gov/dataset/3b5b80e8-6b8d-4715-b3c0-2699af6e72e5/resource/098bbc36-044d-441f-9442-1f4db4d8aaa0/download/healthcare_facility_locations.xlsx,2021/10/01,IMAGERY/OTHER,2014/02/10,NOT AVAILABLE,"040000254",FRESNO SURGERY CENTER,"6",PROPRIETARY,"-999","27",NOT AVAILABLE,N,5,5637,6
"445","445","449","8093720",COMMUNITY BEHAVIORAL HEALTH CENTER,7171 N CEDAR AVE,FRESNO,CA,"93720","3311",(559) 449-4417,PSYCHIATRIC,OPEN,"73",FRESNO,"6019",USA,36.84040123,-119.75766232,"622110",GENERAL MEDICAL AND SURGICAL HOSPITALS,https://data.chhs.ca.gov/dataset/3b5b80e8-6b8d-4715-b3c0-2699af6e72e5/resource/098bbc36-044d-441f-9442-1f4db4d8aaa0/download/healthcare_facility_locations.xlsx,2021/10/01,IMAGERY,2013/10/15,NOT AVAILABLE,"040000259",FRESNO COMMUNITY HOSPITAL AND MEDICAL CENTER,"6",NON-PROFIT,"-999","73",NOT AVAILABLE,N,5,5637,6
"446","446","450","39693720",SAN JOAQUIN VALLEY REHABILITATION HOSPITAL,7173 N SHARON AVE,FRESNO,CA,"93720","3329",(559) 436-3600,GENERAL ACUTE CARE,OPEN,"62",FRESNO,"6019",USA,36.83997451,-119.76055349,"622110",GENERAL MEDICAL AND SURGICAL HOSPITALS,https://data.chhs.ca.gov/dataset/3b5b80e8-6b8d-4715-b3c0-2699af6e72e5/resource/098bbc36-044d-441f-9442-1f4db4d8aaa0/download/healthcare_facility_locations.xlsx,2021/10/01,IMAGERY,2014/02/10,NOT AVAILABLE,"040000613",7173 NORTH SHARON AVENUE OPERATING COMPANY LLC,"6",PROPRIETARY,"-999","62",NOT AVAILABLE,N,5,5637,6
"447","447","451","18793720",KAISER FOUNDATION HOSPITAL - FRESNO,7300 N FRESNO ST,FRESNO,CA,"93720","2941",(559) 448-5997,GENERAL ACUTE CARE,OPEN,"169",FRESNO,"6019",USA,36.84252969,-119.7803051,"622110",GENERAL MEDICAL AND SURGICAL HOSPITALS,https://data.chhs.ca.gov/dataset/3b5b80e8-6b8d-4715-b3c0-2699af6e72e5/resource/098bbc36-044d-441f-9442-1f4db4d8aaa0/download/healthcare_facility_locations.xlsx,2021/10/01,IMAGERY,2014/02/10,NOT AVAILABLE,"040000949",KAISER FOUNDATION HOSPITALS,"6",NON-PROFIT,"-999","169",NOT AVAILABLE,N,5,5637,6
"448","448","452","13993720",FRESNO HEART AND SURGICAL HOSPITAL,15 E AUDUBON DR,FRESNO,CA,"93720","1542",(559) 433-8000,GENERAL ACUTE CARE,OPEN,"57",FRESNO,"6019",USA,36.86012591,-119.78857173,"622110",GENERAL MEDICAL AND SURGICAL HOSPITALS,https://data.chhs.ca.gov/dataset/3b5b80e8-6b8d-4715-b3c0-2699af6e72e5/resource/098bbc36-044d-441f-9442-1f4db4d8aaa0/download/healthcare_facility_locations.xlsx,2021/10/01,IMAGERY,2014/02/10,NOT AVAILABLE,"040001397",FRESNO COMMUNITY HOSPITAL AND MEDICAL CENTER,"6",NON-PROFIT,"-999","57",NOT AVAILABLE,N,5,5637,6
"449","449","453","71993420",MARIAN REGIONAL MEDICAL CENTER - ARROYO GRANDE,345 S HALCYON RD,ARROYO GRANDE,CA,"93420","3817",(805) 739-3100,GENERAL ACUTE CARE,OPEN,"67",SAN LUIS OBISPO,"6079",USA,35.11310809,-120.5909362,"622110",GENERAL MEDICAL AND SURGICAL HOSPITALS,https://data.chhs.ca.gov/dataset/3b5b80e8-6b8d-4715-b3c0-2699af6e72e5/resource/098bbc36-044d-441f-9442-1f4db4d8aaa0/download/healthcare_facility_locations.xlsx,2021/10/01,IMAGERY/OTHER,2015/01/14,NOT AVAILABLE,"050000009",DIGNITY HEALTH,"6",NON-PROFIT,"-999","67",NOT AVAILABLE,N,5,5637,6
"450","450","454","8593003",COMMUNITY MEMORIAL HOSPITAL - SAN BUENAVENTURA,147 N BRENT ST,VENTURA,CA,"93003","2809",(805) 948-5005,GENERAL ACUTE CARE,OPEN,"250",VENTURA,"6111",USA,34.27464599,-119.25830263,"622110",GENERAL MEDICAL AND SURGICAL HOSPITALS,https://data.chhs.ca.gov/dataset/3b5b80e8-6b8d-4715-b3c0-2699af6e72e5/resource/098bbc36-044d-441f-9442-1f4db4d8aaa0/download/healthcare_facility_locations.xlsx,2021/10/01,IMAGERY,2014/02/10,NOT AVAILABLE,"050000014",COMMUNITY MEMORIAL HEALTH SYSTEM,"6",NON-PROFIT,"-999","250",NOT AVAILABLE,Y,5,5637,6
"451","451","455","13893401",FRENCH HOSPITAL MEDICAL CENTER,1911 JOHNSON AVE,SAN LUIS OBISPO,CA,"93401","4131",(805) 542-6300,GENERAL ACUTE CARE,OPEN,"98",SAN LUIS OBISPO,"6079",USA,35.27793151,-120.65064141,"622110",GENERAL MEDICAL AND SURGICAL HOSPITALS,https://data.chhs.ca.gov/dataset/3b5b80e8-6b8d-4715-b3c0-2699af6e72e5/resource/098bbc36-044d-441f-9442-1f4db4d8aaa0/download/healthcare_facility_locations.xlsx,2021/10/01,IMAGERY/OTHER,2014/02/10,NOT AVAILABLE,"050000016",DIGNITY COMMUNITY CARE,"6",NON-PROFIT,"-999","98",NOT AVAILABLE,N,5,5637,6
"452","452","456","14993111",GOLETA VALLEY COTTAGE HOSPITAL,351 S PATTERSON AVE,SANTA BARBARA,CA,"93111","2403",(805) 967-3411,GENERAL ACUTE CARE,OPEN,"52",SANTA BARBARA,"6083",USA,34.43313339,-119.81062997,"622110",GENERAL MEDICAL AND SURGICAL HOSPITALS,https://data.chhs.ca.gov/dataset/3b5b80e8-6b8d-4715-b3c0-2699af6e72e5/resource/098bbc36-044d-441f-9442-1f4db4d8aaa0/download/healthcare_facility_locations.xlsx,2021/10/01,IMAGERY/OTHER,2014/02/10,NOT AVAILABLE,"050000017",GOLETA VALLEY COTTAGE HOSPITAL,"6",NON-PROFIT,"-999","52",NOT AVAILABLE,N,5,5637,6
"453","453","457","26193436",LOMPOC VALLEY MEDICAL CENTER,1515 E OCEAN AVE,LOMPOC,CA,"93436","7092",(805) 737-3300,GENERAL ACUTE CARE,OPEN,"60",SANTA BARBARA,"6083",USA,34.64091099,-120.43953237,"622110",GENERAL MEDICAL AND SURGICAL HOSPITALS,https://data.chhs.ca.gov/dataset/3b5b80e8-6b8d-4715-b3c0-2699af6e72e5/resource/098bbc36-044d-441f-9442-1f4db4d8aaa0/download/healthcare_facility_locations.xlsx,2021/10/01,IMAGERY,2014/02/10,NOT AVAILABLE,"050000018",LOMPOC VALLEY MEDICAL CENTER,"6",GOVERNMENT - DISTRICT/AUTHORITY,"-999","60",NOT AVAILABLE,N,5,5637,6
"454","454","458","26991360",LOS ROBLES HOSPITAL AND MEDICAL CENTER,215 W JANSS RD,THOUSAND OAKS,CA,"91360","1847",(805) 497-2727,GENERAL ACUTE CARE,OPEN,"325",VENTURA,"6111",USA,34.20797051,-118.88289489,"622110",GENERAL MEDICAL AND SURGICAL HOSPITALS,https://data.chhs.ca.gov/dataset/3b5b80e8-6b8d-4715-b3c0-2699af6e72e5/resource/098bbc36-044d-441f-9442-1f4db4d8aaa0/download/healthcare_facility_locations.xlsx,2021/10/01,IMAGERY,2014/02/10,NOT AVAILABLE,"050000020",LOS ROBLES REGIONAL MEDICAL CENTER,"6",PROPRIETARY,"-999","325",LEVEL II,Y,1,369,2
"455","455","459","27493454",MARIAN REGIONAL MEDICAL CENTER,1400 E CHURCH ST,SANTA MARIA,CA,"93454","5906",(805) 739-3100,GENERAL ACUTE CARE,OPEN,"226",SANTA BARBARA,"6083",USA,34.95119993,-120.41313054,"622110",GENERAL MEDICAL AND SURGICAL HOSPITALS,https://data.chhs.ca.gov/dataset/3b5b80e8-6b8d-4715-b3c0-2699af6e72e5/resource/098bbc36-044d-441f-9442-1f4db4d8aaa0/download/healthcare_facility_locations.xlsx,2021/10/01,IMAGERY,2014/02/10,NOT AVAILABLE,"050000021",DIGNITY HEALTH,"6",NON-PROFIT,"-999","226",LEVEL III,Y,2,551,3
"456","456","460","37393105",COTTAGE REHABILITATION HOSPITAL,2415 DE LA VINA ST,SANTA BARBARA,CA,"93105","3819",(805) 687-7444,REHABILITATION,OPEN,"38",SANTA BARBARA,"6083",USA,34.4329679,-119.72274312,"622310","REHABILITATION HOSPITALS (EXCEPT ALCOHOLISM, DRUG ADDICTION)",https://data.chhs.ca.gov/dataset/3b5b80e8-6b8d-4715-b3c0-2699af6e72e5/resource/098bbc36-044d-441f-9442-1f4db4d8aaa0/download/healthcare_facility_locations.xlsx,2021/10/01,IMAGERY/OTHER,2014/02/10,NOT AVAILABLE,"050000022",SANTA BARBARA COTTAGE HOSPITAL,"6",NON-PROFIT,"-999","38",NOT AVAILABLE,N,5,5637,6
"457","457","461","32993023",OJAI VALLEY COMMUNITY HOSPITAL,1306 MARICOPA HWY,OJAI,CA,"93023","3131",(805) 640-2280,CRITICAL ACCESS,OPEN,"25",VENTURA,"6111",USA,34.44291519,-119.26438431,"622110",GENERAL MEDICAL AND SURGICAL HOSPITALS,https://data.chhs.ca.gov/dataset/3b5b80e8-6b8d-4715-b3c0-2699af6e72e5/resource/098bbc36-044d-441f-9442-1f4db4d8aaa0/download/healthcare_facility_locations.xlsx,2021/10/01,IMAGERY/OTHER,2014/02/10,NOT AVAILABLE,"050000023",COMMUNITY MEMORIAL HEALTH SYSTEM,"6",NON-PROFIT,"-999","25",NOT AVAILABLE,N,5,5637,6
"458","458","462","45593010",ST. JOHN'S HOSPITAL CAMARILLO,2309 ANTONIO AVE,CAMARILLO,CA,"93010","1414",(805) 988-2701,GENERAL ACUTE CARE,OPEN,"58",VENTURA,"6111",USA,34.24367912,-119.01944767,"622110",GENERAL MEDICAL AND SURGICAL HOSPITALS,https://data.chhs.ca.gov/dataset/3b5b80e8-6b8d-4715-b3c0-2699af6e72e5/resource/098bbc36-044d-441f-9442-1f4db4d8aaa0/download/healthcare_facility_locations.xlsx,2021/10/01,IMAGERY/OTHER,2014/02/10,NOT AVAILABLE,"050000026",DIGNITY HEALTH,"6",NON-PROFIT,"-999","58",NOT AVAILABLE,N,5,5637,6
"459","459","463","40893463",SANTA YNEZ VALLEY COTTAGE HOSPITAL,2050 VIBORG RD,SOLVANG,CA,"93463","2220",(805) 688-6971,CRITICAL ACCESS,OPEN,"11",SANTA BARBARA,"6083",USA,34.60208279,-120.12630389,"622110",GENERAL MEDICAL AND SURGICAL HOSPITALS,https://data.chhs.ca.gov/dataset/3b5b80e8-6b8d-4715-b3c0-2699af6e72e5/resource/098bbc36-044d-441f-9442-1f4db4d8aaa0/download/healthcare_facility_locations.xlsx,2021/10/01,IMAGERY/OTHER,2014/02/10,NOT AVAILABLE,"050000030",SANTA YNEZ VALLEY COTTAGE HOSPITAL INC,"6",NON-PROFIT,"-999","11",NOT AVAILABLE,N,5,5637,6
"460","460","464","43493405",TENET HEALTH CENTRAL COAST SIERRA VISTA REGIONAL MEDICAL CENTER,1010 MURRAY AVE,SAN LUIS OBISPO,CA,"93405","1806",(805) 546-7695,GENERAL ACUTE CARE,OPEN,"162",SAN LUIS OBISPO,"6079",USA,35.29179679,-120.66605068,"622110",GENERAL MEDICAL AND SURGICAL HOSPITALS,https://data.chhs.ca.gov/dataset/3b5b80e8-6b8d-4715-b3c0-2699af6e72e5/resource/098bbc36-044d-441f-9442-1f4db4d8aaa0/download/healthcare_facility_locations.xlsx,2021/10/01,IMAGERY,2014/02/10,NOT AVAILABLE,"050000031",SIERRA VISTA HOSPITAL INC,"6",PROPRIETARY,"-999","162",LEVEL III,Y,2,551,3
"461","461","465","45693030",ST JOHNS REGIONAL MEDICAL CENTER,1600 N ROSE AVE,OXNARD,CA,"93030","3722",(805) 988-2701,GENERAL ACUTE CARE,OPEN,"269",VENTURA,"6111",USA,34.21633831,-119.15571826,"622110",GENERAL MEDICAL AND SURGICAL HOSPITALS,https://data.chhs.ca.gov/dataset/3b5b80e8-6b8d-4715-b3c0-2699af6e72e5/resource/098bbc36-044d-441f-9442-1f4db4d8aaa0/download/healthcare_facility_locations.xlsx,2021/10/01,IMAGERY/OTHER,2014/02/10,NOT AVAILABLE,"050000035",DIGNITY HEALTH,"6",NON-PROFIT,"-999","269",NOT AVAILABLE,Y,5,5637,6
"462","462","466","50493465",TENET HEALTH CENTRAL COAST TWIN CITIES COMMUNITY HOSPITAL,1100 LAS TABLAS ROAD,TEMPLETON,CA,"93465","9704",(805) 434-3500,GENERAL ACUTE CARE,OPEN,"122",SAN LUIS OBISPO,"6079",USA,35.55523789,-120.71958843,"622110",GENERAL MEDICAL AND SURGICAL HOSPITALS,https://data.chhs.ca.gov/dataset/3b5b80e8-6b8d-4715-b3c0-2699af6e72e5/resource/098bbc36-044d-441f-9442-1f4db4d8aaa0/download/healthcare_facility_locations.xlsx,2021/10/01,IMAGERY/OTHER,2014/02/10,NOT AVAILABLE,"050000037",TWIN CITIES COMMUNITY HOSPITAL INC.,"6",PROPRIETARY,"-999","122",NOT AVAILABLE,Y,5,5637,6
"463","463","467","51793003",VENTURA COUNTY MEDICAL CENTER,300 HILLMONT AVE,VENTURA,CA,"93003","3099",(805) 652-6058,GENERAL ACUTE CARE,OPEN,"180",VENTURA,"6111",USA,34.2773502,-119.25213366,"622110",GENERAL MEDICAL AND SURGICAL HOSPITALS,https://data.chhs.ca.gov/dataset/3b5b80e8-6b8d-4715-b3c0-2699af6e72e5/resource/098bbc36-044d-441f-9442-1f4db4d8aaa0/download/healthcare_facility_locations.xlsx,2021/10/01,IMAGERY/OTHER,2014/02/10,NOT AVAILABLE,"050000039",COUNTY OF VENTURA,"6",GOVERNMENT - LOCAL,"-999","180",LEVEL II,Y,1,369,2
"464","464","468","2793001",AURORA VISTA DEL MAR HOSPITAL,801 SENECA ST,VENTURA,CA,"93001","1411",(805) 653-6434,PSYCHIATRIC,OPEN,"87",VENTURA,"6111",USA,34.30776435,-119.28366353,"622210",PSYCHIATRIC AND SUBSTANCE ABUSE HOSPITALS,https://data.chhs.ca.gov/dataset/3b5b80e8-6b8d-4715-b3c0-2699af6e72e5/resource/098bbc36-044d-441f-9442-1f4db4d8aaa0/download/healthcare_facility_locations.xlsx,2021/10/01,IMAGERY,2014/02/10,NOT AVAILABLE,"050000041",AURORA VISTA DEL MAR LLC,"6",PROPRIETARY,"-999","87",NOT AVAILABLE,N,5,5637,6
"465","465","469","196784327",VENTURA COUNTY MEDICAL CENTER INPATIENT D/P APH,200 HILLMONT AVE,VENTURA,CA,"93003","1647",(805) 652-6100,PSYCHIATRIC,OPEN,"43",VENTURA,"6111",USA,34.276536,-119.2534163,"622210",PSYCHIATRIC AND SUBSTANCE ABUSE HOSPITALS,https://data.chhs.ca.gov/dataset/3b5b80e8-6b8d-4715-b3c0-2699af6e72e5/resource/098bbc36-044d-441f-9442-1f4db4d8aaa0/download/healthcare_facility_locations.xlsx,2021/10/01,IMAGERY/OTHER,2022/02/28,NOT AVAILABLE,"050000192",COUNTY OF VENTURA,"6",GOVERNMENT - LOCAL,"-999","43",NOT AVAILABLE,N,5,5637,6
"466","466","470","74193102",SANTA BARBARA COTTAGE HOSPITAL,400 WEST PUEBLO STREET,SANTA BARBARA,CA,"93105","4353",(805) 682-7111,GENERAL ACUTE CARE,OPEN,"461",SANTA BARBARA,"6083",USA,34.42946669,-119.72380904,"622110",GENERAL MEDICAL AND SURGICAL HOSPITALS,https://data.chhs.ca.gov/dataset/3b5b80e8-6b8d-4715-b3c0-2699af6e72e5/resource/098bbc36-044d-441f-9442-1f4db4d8aaa0/download/healthcare_facility_locations.xlsx,2021/10/01,IMAGERY/OTHER,2015/01/16,NOT AVAILABLE,"050000280",SANTA BARBARA COTTAGE HOSPITAL,"6",NON-PROFIT,"-999","461","LEVEL I ADULT, LEVEL II PEDIATRIC",Y,0,0,0
"467","467","471","43793065",ADVENTIST HEALTH SIMI VALLEY,2975 SYCAMORE DRIVE,SIMI VALLEY,CA,"93065","1201",(805) 955-6000,GENERAL ACUTE CARE,OPEN,"144",VENTURA,"6111",USA,34.28916539,-118.74453532,"622110",GENERAL MEDICAL AND SURGICAL HOSPITALS,https://data.chhs.ca.gov/dataset/3b5b80e8-6b8d-4715-b3c0-2699af6e72e5/resource/098bbc36-044d-441f-9442-1f4db4d8aaa0/download/healthcare_facility_locations.xlsx,2021/10/01,IMAGERY,2014/02/10,NOT AVAILABLE,"050000455",SIMI VALLEY HOSPITAL AND HEALTH CARE SERVICES,"6",NON-PROFIT,"-999","144",NOT AVAILABLE,Y,5,5637,6
"468","468","472","53391362",LOS ROBLES HOSPITAL AND MEDICAL CENTER - EAST CAMPUS,150 VIA MERIDA,WESTLAKE VILLAGE,CA,"91362","3816",(805) 370-4421,GENERAL ACUTE CARE,OPEN,"40",VENTURA,"6111",USA,34.15493887,-118.81573639,"622110",GENERAL MEDICAL AND SURGICAL HOSPITALS,https://data.chhs.ca.gov/dataset/3b5b80e8-6b8d-4715-b3c0-2699af6e72e5/resource/098bbc36-044d-441f-9442-1f4db4d8aaa0/download/healthcare_facility_locations.xlsx,2021/10/01,IMAGERY/OTHER,2014/02/10,NOT AVAILABLE,"050000553",LOS ROBLES REGIONAL MEDICAL CENTER,"6",PROPRIETARY,"-999","40",NOT AVAILABLE,N,5,5637,6
"469","469","473","40393110",SANTA BARBARA COUNTY PSYCHIATRIC HEALTH FACILITY,315 CAMINO DEL REMEDIO,SANTA BARBARA,CA,"93110","1332",(805) 681-5244,PSYCHIATRIC,OPEN,"16",SANTA BARBARA,"6083",USA,34.4441369,-119.7806333,"622210",PSYCHIATRIC AND SUBSTANCE ABUSE HOSPITALS,https://data.chhs.ca.gov/dataset/3b5b80e8-6b8d-4715-b3c0-2699af6e72e5/resource/098bbc36-044d-441f-9442-1f4db4d8aaa0/download/healthcare_facility_locations.xlsx,2021/10/01,IMAGERY,2014/02/10,NOT AVAILABLE,"050000667",NOT AVAILABLE,"6",NOT AVAILABLE,"-999","16",NOT AVAILABLE,N,5,5637,6
"470","470","474","196784328",SANTA BARBARA COTTAGE HOSPITAL - D/P APH,400 W PUEBLO ST,SANTA BARBARA,CA,"93105","4353",(805) 682-7111,PSYCHIATRIC,OPEN,"20",SANTA BARBARA,"6083",USA,34.42994402,-119.72364378,"622210",PSYCHIATRIC AND SUBSTANCE ABUSE HOSPITALS,https://data.chhs.ca.gov/dataset/3b5b80e8-6b8d-4715-b3c0-2699af6e72e5/resource/098bbc36-044d-441f-9442-1f4db4d8aaa0/download/healthcare_facility_locations.xlsx,2021/10/01,IMAGERY/OTHER,2022/02/28,NOT AVAILABLE,"050001293",SANTA BARBARA COTTAGE HOSPITAL,"6",NON-PROFIT,"-999","20",NOT AVAILABLE,Y,5,5637,6
"471","471","475","49691361",THOUSAND OAKS SURGICAL HOSPITAL - A CAMPUS OF LOS ROBLES HOSPIAL AND MEDICAL CENTER,401 ROLLING OAKS DR,THOUSAND OAKS,CA,"91361","1050",(805) 777-7750,GENERAL ACUTE CARE,OPEN,"21",VENTURA,"6111",USA,34.17486097,-118.86938419,"622110",GENERAL MEDICAL AND SURGICAL HOSPITALS,https://data.chhs.ca.gov/dataset/3b5b80e8-6b8d-4715-b3c0-2699af6e72e5/resource/098bbc36-044d-441f-9442-1f4db4d8aaa0/download/healthcare_facility_locations.xlsx,2021/10/01,IMAGERY,2014/02/10,NOT AVAILABLE,"050001468",LOS ROBLES REGIONAL MEDICAL CENTER,"6",PROPRIETARY,"-999","21",NOT AVAILABLE,N,5,5637,6
"472","472","476","392801",AHMC ANAHEIM REGIONAL MEDICAL CENTER,1111 W LA PALMA AVE,ANAHEIM,CA,"92801","2804",(714) 999-6151,GENERAL ACUTE CARE,OPEN,"223",ORANGE,"6059",USA,33.84815379,-117.93444769,"622110",GENERAL MEDICAL AND SURGICAL HOSPITALS,https://data.chhs.ca.gov/dataset/3b5b80e8-6b8d-4715-b3c0-2699af6e72e5/resource/098bbc36-044d-441f-9442-1f4db4d8aaa0/download/healthcare_facility_locations.xlsx,2021/10/01,IMAGERY/OTHER,2014/02/10,NOT AVAILABLE,"060000002","AHMC ANAHEIM REGIONAL MEDICAL CENTER, LP","6",PROPRIETARY,"-999","223",NOT AVAILABLE,N,5,5637,6
"473","473","477","5992669",CHAPMAN GLOBAL MEDICAL CENTER,2601 E CHAPMAN AVE,ORANGE,CA,"92869","3206",(714) 450-1820,GENERAL ACUTE CARE,OPEN,"75",ORANGE,"6059",USA,33.78861494,-117.82641316,"622110",GENERAL MEDICAL AND SURGICAL HOSPITALS,https://data.chhs.ca.gov/dataset/3b5b80e8-6b8d-4715-b3c0-2699af6e72e5/resource/098bbc36-044d-441f-9442-1f4db4d8aaa0/download/healthcare_facility_locations.xlsx,2021/10/01,IMAGERY,2014/02/10,NOT AVAILABLE,"060000006","CHAPMAN GLOBAL MEDICAL CENTER, INC.","6",PROPRIETARY,"-999","75",NOT AVAILABLE,N,5,5637,6
"474","474","478","70892868",CHILDREN'S HOSPITAL OF ORANGE COUNTY,1201 W LA VETA AVE,ORANGE,CA,"92868","4203",(818) 267-7478,CHILDREN,OPEN,"334",ORANGE,"6059",USA,33.78081013,-117.86577646,"622110","CHILDREN'S HOSPITALS, GENERAL",https://data.chhs.ca.gov/dataset/3b5b80e8-6b8d-4715-b3c0-2699af6e72e5/resource/098bbc36-044d-441f-9442-1f4db4d8aaa0/download/healthcare_facility_locations.xlsx,2021/10/01,IMAGERY/OTHER,2015/01/13,NOT AVAILABLE,"060000007",CHILDREN'S HOSPITAL OF ORANGE COUNTY,"6",NON-PROFIT,"-999","334",LEVEL II PEDIATRIC,Y,0,0,0
"475","475","479","7792627",COLLEGE HOSPITAL COSTA MESA,301 VICTORIA ST,COSTA MESA,CA,"92627","1995",(949) 642-2734,GENERAL ACUTE CARE,OPEN,"23",ORANGE,"6059",USA,33.65185454,-117.91185211,"622110",GENERAL MEDICAL AND SURGICAL HOSPITALS,https://data.chhs.ca.gov/dataset/3b5b80e8-6b8d-4715-b3c0-2699af6e72e5/resource/098bbc36-044d-441f-9442-1f4db4d8aaa0/download/healthcare_facility_locations.xlsx,2021/10/01,IMAGERY,2014/02/10,NOT AVAILABLE,"060000008","CHCM, INC.","6",PROPRIETARY,"-999","23",NOT AVAILABLE,N,5,5637,6
"476","476","480","13392708",FOUNTAIN VALLEY REGIONAL HOSPITAL AND MEDICAL CENTER,17100 EUCLID ST,FOUNTAIN VALLEY,CA,"92708","4004",(714) 966-7279,GENERAL ACUTE CARE,OPEN,"293",ORANGE,"6059",USA,33.71493477,-117.93596951,"622110",GENERAL MEDICAL AND SURGICAL HOSPITALS,https://data.chhs.ca.gov/dataset/3b5b80e8-6b8d-4715-b3c0-2699af6e72e5/resource/098bbc36-044d-441f-9442-1f4db4d8aaa0/download/healthcare_facility_locations.xlsx,2021/10/01,IMAGERY,2014/03/12,NOT AVAILABLE,"060000011",FOUNTAIN VALLEY REGIONAL HOSPITAL AND MEDICAL CENTER,"6",PROPRIETARY,"-999","293",NOT AVAILABLE,Y,5,5637,6
"477","477","481","31592680",FOOTHILL REGIONAL MEDICAL CENTER,14662 NEWPORT AVE,TUSTIN,CA,"92780","6064",(310) 968-9109,GENERAL ACUTE CARE,OPEN,"135",ORANGE,"6059",USA,33.73025666,-117.82857161,"622110",GENERAL MEDICAL AND SURGICAL HOSPITALS,https://data.chhs.ca.gov/dataset/3b5b80e8-6b8d-4715-b3c0-2699af6e72e5/resource/098bbc36-044d-441f-9442-1f4db4d8aaa0/download/healthcare_facility_locations.xlsx,2021/10/01,IMAGERY/OTHER,2014/02/10,NOT AVAILABLE,"060000013","ALTA NEWPORT HOSPITAL, INC.","6",PROPRIETARY,"-999","135",NOT AVAILABLE,N,5,5637,6
"478","478","482","16892663",HOAG MEMORIAL HOSPITAL PRESBYTERIAN,1 HOAG DR,NEWPORT BEACH,CA,"92663","4162",(949) 422-5418,GENERAL ACUTE CARE,OPEN,"434",ORANGE,"6059",USA,33.62447112,-117.92930201,"622110",GENERAL MEDICAL AND SURGICAL HOSPITALS,https://data.chhs.ca.gov/dataset/3b5b80e8-6b8d-4715-b3c0-2699af6e72e5/resource/098bbc36-044d-441f-9442-1f4db4d8aaa0/download/healthcare_facility_locations.xlsx,2021/10/01,IMAGERY/OTHER,2014/02/10,NOT AVAILABLE,"060000014",HOAG MEMORIAL HOSPITAL PRESBYTERIAN,"6",NON-PROFIT,"-999","434",NOT AVAILABLE,Y,5,5637,6
"479","479","483","17392647",HUNTINGTON BEACH HOSPITAL,17772 BEACH BLVD,HUNTINGTON BEACH,CA,"92647","6819",(714) 392-2721,GENERAL ACUTE CARE,OPEN,"82",ORANGE,"6059",USA,33.70331242,-117.98785846,"622110",GENERAL MEDICAL AND SURGICAL HOSPITALS,https://data.chhs.ca.gov/dataset/3b5b80e8-6b8d-4715-b3c0-2699af6e72e5/resource/098bbc36-044d-441f-9442-1f4db4d8aaa0/download/healthcare_facility_locations.xlsx,2021/10/01,IMAGERY/OTHER,2014/02/10,NOT AVAILABLE,"060000015","PRIME HEALTHCARE HUNTINGTON BEACH, LLC","6",PROPRIETARY,"-999","82",NOT AVAILABLE,N,5,5637,6
"480","480","484","52592804",WEST ANAHEIM MEDICAL CENTER,3033 W ORANGE AVE,ANAHEIM,CA,"92804","3156",(714) 229-4000,GENERAL ACUTE CARE,OPEN,"167",ORANGE,"6059",USA,33.82538521,-117.99507363,"622110",GENERAL MEDICAL AND SURGICAL HOSPITALS,https://data.chhs.ca.gov/dataset/3b5b80e8-6b8d-4715-b3c0-2699af6e72e5/resource/098bbc36-044d-441f-9442-1f4db4d8aaa0/download/healthcare_facility_locations.xlsx,2021/10/01,IMAGERY/OTHER,2014/02/10,NOT AVAILABLE,"060000016","PRIME HEALTHCARE ANAHEIM, LLC","6",PROPRIETARY,"-999","167",NOT AVAILABLE,N,5,5637,6
"481","481","485","24392683",KINDRED HOSPITAL WESTMINSTER,200 HOSPITAL CIR,WESTMINSTER,CA,"92683","3910",(714) 893-4541,GENERAL ACUTE CARE,OPEN,"109",ORANGE,"6059",USA,33.76353321,-117.99525596,"622110",GENERAL MEDICAL AND SURGICAL HOSPITALS,https://data.chhs.ca.gov/dataset/3b5b80e8-6b8d-4715-b3c0-2699af6e72e5/resource/098bbc36-044d-441f-9442-1f4db4d8aaa0/download/healthcare_facility_locations.xlsx,2021/10/01,IMAGERY/OTHER,2014/02/10,NOT AVAILABLE,"060000017","THC - ORANGE COUNTY, LLC","6",PROPRIETARY,"-999","109",NOT AVAILABLE,N,5,5637,6
"482","482","486","7592704",SOUTH COAST GLOBAL MEDICAL CENTER,2701 S BRISTOL ST,SANTA ANA,CA,"92704","6201",(714) 754-5000,GENERAL ACUTE CARE,OPEN,"109",ORANGE,"6059",USA,33.71113399,-117.88462221,"622110",GENERAL MEDICAL AND SURGICAL HOSPITALS,https://data.chhs.ca.gov/dataset/3b5b80e8-6b8d-4715-b3c0-2699af6e72e5/resource/098bbc36-044d-441f-9442-1f4db4d8aaa0/download/healthcare_facility_locations.xlsx,2021/10/01,IMAGERY/OTHER,2014/02/10,NOT AVAILABLE,"060000021","SOUTH COAST GLOBAL MEDICAL CENTER, INC.","6",PROPRIETARY,"-999","109",NOT AVAILABLE,N,5,5637,6
